[
  {
    "nom": "Ablon",
    "code": "14001",
    "population": 1166,
    "centre": {
      "type": "Point",
      "coordinates": [
        0.2806,
        49.4007
      ]
    }
  },
  {
    "nom": "Agy",
    "code": "14003",
    "population": 320,
    "centre": {
      "type": "Point",
      "coordinates": [
        -0.7793,
        49.2372
      ]
    }
  },
  {
    "nom": "Valambray",
    "code": "14005",
    "population": 1682,
    "centre": {
      "type": "Point",
      "coordinates": [
        -0.1905,
        49.0864
      ]
    }
  },
  {
    "nom": "Amayé-sur-Orne",
    "code": "14006",
    "population": 1079,
    "centre": {
      "type": "Point",
      "coordinates": [
        -0.4358,
        49.0914
      ]
    }
  },
  {
    "nom": "Amayé-sur-Seulles",
    "code": "14007",
    "population": 215,
    "centre": {
      "type": "Point",
      "coordinates": [
        -0.7162,
        49.0824
      ]
    }
  },
  {
    "nom": "Amfreville",
    "code": "14009",
    "population": 1394,
    "centre": {
      "type": "Point",
      "coordinates": [
        -0.2405,
        49.2508
      ]
    }
  },
  {
    "nom": "Angerville",
    "code": "14012",
    "population": 184,
    "centre": {
      "type": "Point",
      "coordinates": [
        -0.029,
        49.244
      ]
    }
  },
  {
    "nom": "Colomby-Anguerny",
    "code": "14014",
    "population": 1353,
    "centre": {
      "type": "Point",
      "coordinates": [
        -0.4101,
        49.264
      ]
    }
  },
  {
    "nom": "Anisy",
    "code": "14015",
    "population": 819,
    "centre": {
      "type": "Point",
      "coordinates": [
        -0.4,
        49.2531
      ]
    }
  },
  {
    "nom": "Annebault",
    "code": "14016",
    "population": 521,
    "centre": {
      "type": "Point",
      "coordinates": [
        0.0547,
        49.2492
      ]
    }
  },
  {
    "nom": "Arganchy",
    "code": "14019",
    "population": 220,
    "centre": {
      "type": "Point",
      "coordinates": [
        -0.7304,
        49.2295
      ]
    }
  },
  {
    "nom": "Argences",
    "code": "14020",
    "population": 3959,
    "centre": {
      "type": "Point",
      "coordinates": [
        -0.1581,
        49.135
      ]
    }
  },
  {
    "nom": "Arromanches-les-Bains",
    "code": "14021",
    "population": 413,
    "centre": {
      "type": "Point",
      "coordinates": [
        -0.6217,
        49.3354
      ]
    }
  },
  {
    "nom": "Asnelles",
    "code": "14022",
    "population": 642,
    "centre": {
      "type": "Point",
      "coordinates": [
        -0.5837,
        49.3328
      ]
    }
  },
  {
    "nom": "Asnières-en-Bessin",
    "code": "14023",
    "population": 73,
    "centre": {
      "type": "Point",
      "coordinates": [
        -0.9383,
        49.3605
      ]
    }
  },
  {
    "nom": "Auberville",
    "code": "14024",
    "population": 609,
    "centre": {
      "type": "Point",
      "coordinates": [
        -0.0275,
        49.3106
      ]
    }
  },
  {
    "nom": "Aubigny",
    "code": "14025",
    "population": 291,
    "centre": {
      "type": "Point",
      "coordinates": [
        -0.2154,
        48.9136
      ]
    }
  },
  {
    "nom": "Audrieu",
    "code": "14026",
    "population": 1167,
    "centre": {
      "type": "Point",
      "coordinates": [
        -0.6015,
        49.2047
      ]
    }
  },
  {
    "nom": "Les Monts d'Aunay",
    "code": "14027",
    "population": 4777,
    "centre": {
      "type": "Point",
      "coordinates": [
        -0.6545,
        48.9908
      ]
    }
  },
  {
    "nom": "Authie",
    "code": "14030",
    "population": 1707,
    "centre": {
      "type": "Point",
      "coordinates": [
        -0.4307,
        49.2072
      ]
    }
  },
  {
    "nom": "Les Authieux-sur-Calonne",
    "code": "14032",
    "population": 278,
    "centre": {
      "type": "Point",
      "coordinates": [
        0.278,
        49.2842
      ]
    }
  },
  {
    "nom": "Auvillars",
    "code": "14033",
    "population": 238,
    "centre": {
      "type": "Point",
      "coordinates": [
        0.0844,
        49.2014
      ]
    }
  },
  {
    "nom": "Avenay",
    "code": "14034",
    "population": 555,
    "centre": {
      "type": "Point",
      "coordinates": [
        -0.462,
        49.0959
      ]
    }
  },
  {
    "nom": "Balleroy-sur-Drôme",
    "code": "14035",
    "population": 1303,
    "centre": {
      "type": "Point",
      "coordinates": [
        -0.8325,
        49.1931
      ]
    }
  },
  {
    "nom": "Banneville-la-Campagne",
    "code": "14036",
    "population": 187,
    "centre": {
      "type": "Point",
      "coordinates": [
        -0.2276,
        49.1669
      ]
    }
  },
  {
    "nom": "Malherbe-sur-Ajon",
    "code": "14037",
    "population": 578,
    "centre": {
      "type": "Point",
      "coordinates": [
        -0.5777,
        49.0495
      ]
    }
  },
  {
    "nom": "Banville",
    "code": "14038",
    "population": 797,
    "centre": {
      "type": "Point",
      "coordinates": [
        -0.489,
        49.3087
      ]
    }
  },
  {
    "nom": "Barbery",
    "code": "14039",
    "population": 760,
    "centre": {
      "type": "Point",
      "coordinates": [
        -0.345,
        49.0151
      ]
    }
  },
  {
    "nom": "Barbeville",
    "code": "14040",
    "population": 240,
    "centre": {
      "type": "Point",
      "coordinates": [
        -0.7527,
        49.275
      ]
    }
  },
  {
    "nom": "Barneville-la-Bertran",
    "code": "14041",
    "population": 121,
    "centre": {
      "type": "Point",
      "coordinates": [
        0.1803,
        49.3912
      ]
    }
  },
  {
    "nom": "Baron-sur-Odon",
    "code": "14042",
    "population": 1154,
    "centre": {
      "type": "Point",
      "coordinates": [
        -0.4846,
        49.1301
      ]
    }
  },
  {
    "nom": "Barou-en-Auge",
    "code": "14043",
    "population": 67,
    "centre": {
      "type": "Point",
      "coordinates": [
        -0.0386,
        48.9271
      ]
    }
  },
  {
    "nom": "Basly",
    "code": "14044",
    "population": 1029,
    "centre": {
      "type": "Point",
      "coordinates": [
        -0.4295,
        49.2781
      ]
    }
  },
  {
    "nom": "Basseneville",
    "code": "14045",
    "population": 253,
    "centre": {
      "type": "Point",
      "coordinates": [
        -0.1368,
        49.2069
      ]
    }
  },
  {
    "nom": "Bavent",
    "code": "14046",
    "population": 1885,
    "centre": {
      "type": "Point",
      "coordinates": [
        -0.18,
        49.2281
      ]
    }
  },
  {
    "nom": "Bayeux",
    "code": "14047",
    "population": 12659,
    "centre": {
      "type": "Point",
      "coordinates": [
        -0.7016,
        49.2772
      ]
    }
  },
  {
    "nom": "Bazenville",
    "code": "14049",
    "population": 142,
    "centre": {
      "type": "Point",
      "coordinates": [
        -0.5861,
        49.3008
      ]
    }
  },
  {
    "nom": "La Bazoque",
    "code": "14050",
    "population": 193,
    "centre": {
      "type": "Point",
      "coordinates": [
        -0.8797,
        49.1554
      ]
    }
  },
  {
    "nom": "Beaumais",
    "code": "14053",
    "population": 165,
    "centre": {
      "type": "Point",
      "coordinates": [
        -0.0675,
        48.8963
      ]
    }
  },
  {
    "nom": "Beaumesnil",
    "code": "14054",
    "population": 207,
    "centre": {
      "type": "Point",
      "coordinates": [
        -0.9676,
        48.8971
      ]
    }
  },
  {
    "nom": "Beaumont-en-Auge",
    "code": "14055",
    "population": 376,
    "centre": {
      "type": "Point",
      "coordinates": [
        0.1127,
        49.2652
      ]
    }
  },
  {
    "nom": "Bellengreville",
    "code": "14057",
    "population": 1598,
    "centre": {
      "type": "Point",
      "coordinates": [
        -0.2334,
        49.1201
      ]
    }
  },
  {
    "nom": "Benerville-sur-Mer",
    "code": "14059",
    "population": 367,
    "centre": {
      "type": "Point",
      "coordinates": [
        0.0457,
        49.3394
      ]
    }
  },
  {
    "nom": "Bénouville",
    "code": "14060",
    "population": 1987,
    "centre": {
      "type": "Point",
      "coordinates": [
        -0.2896,
        49.2423
      ]
    }
  },
  {
    "nom": "Souleuvre en Bocage",
    "code": "14061",
    "population": 8629,
    "centre": {
      "type": "Point",
      "coordinates": [
        -0.84,
        48.9616
      ]
    }
  },
  {
    "nom": "Bény-sur-Mer",
    "code": "14062",
    "population": 467,
    "centre": {
      "type": "Point",
      "coordinates": [
        -0.4348,
        49.2879
      ]
    }
  },
  {
    "nom": "Bernesq",
    "code": "14063",
    "population": 212,
    "centre": {
      "type": "Point",
      "coordinates": [
        -0.9312,
        49.274
      ]
    }
  },
  {
    "nom": "Bernières-d'Ailly",
    "code": "14064",
    "population": 222,
    "centre": {
      "type": "Point",
      "coordinates": [
        -0.1057,
        48.9485
      ]
    }
  },
  {
    "nom": "Bernières-sur-Mer",
    "code": "14066",
    "population": 2437,
    "centre": {
      "type": "Point",
      "coordinates": [
        -0.4173,
        49.3162
      ]
    }
  },
  {
    "nom": "Biéville-Beuville",
    "code": "14068",
    "population": 3840,
    "centre": {
      "type": "Point",
      "coordinates": [
        -0.3381,
        49.2416
      ]
    }
  },
  {
    "nom": "Beuvillers",
    "code": "14069",
    "population": 1283,
    "centre": {
      "type": "Point",
      "coordinates": [
        0.249,
        49.1276
      ]
    }
  },
  {
    "nom": "Beuvron-en-Auge",
    "code": "14070",
    "population": 203,
    "centre": {
      "type": "Point",
      "coordinates": [
        -0.0466,
        49.1964
      ]
    }
  },
  {
    "nom": "Blainville-sur-Orne",
    "code": "14076",
    "population": 6106,
    "centre": {
      "type": "Point",
      "coordinates": [
        -0.3043,
        49.2287
      ]
    }
  },
  {
    "nom": "Blangy-le-Château",
    "code": "14077",
    "population": 828,
    "centre": {
      "type": "Point",
      "coordinates": [
        0.2813,
        49.2501
      ]
    }
  },
  {
    "nom": "Blay",
    "code": "14078",
    "population": 354,
    "centre": {
      "type": "Point",
      "coordinates": [
        -0.8349,
        49.2774
      ]
    }
  },
  {
    "nom": "Blonville-sur-Mer",
    "code": "14079",
    "population": 1621,
    "centre": {
      "type": "Point",
      "coordinates": [
        0.0316,
        49.3229
      ]
    }
  },
  {
    "nom": "Le Bô",
    "code": "14080",
    "population": 117,
    "centre": {
      "type": "Point",
      "coordinates": [
        -0.4412,
        48.9061
      ]
    }
  },
  {
    "nom": "La Boissière",
    "code": "14082",
    "population": 187,
    "centre": {
      "type": "Point",
      "coordinates": [
        0.1331,
        49.1302
      ]
    }
  },
  {
    "nom": "Bonnebosq",
    "code": "14083",
    "population": 649,
    "centre": {
      "type": "Point",
      "coordinates": [
        0.0944,
        49.2173
      ]
    }
  },
  {
    "nom": "Bonnemaison",
    "code": "14084",
    "population": 398,
    "centre": {
      "type": "Point",
      "coordinates": [
        -0.5857,
        49.0041
      ]
    }
  },
  {
    "nom": "Bonneville-la-Louvet",
    "code": "14085",
    "population": 825,
    "centre": {
      "type": "Point",
      "coordinates": [
        0.3364,
        49.2748
      ]
    }
  },
  {
    "nom": "Bonneville-sur-Touques",
    "code": "14086",
    "population": 307,
    "centre": {
      "type": "Point",
      "coordinates": [
        0.1179,
        49.3283
      ]
    }
  },
  {
    "nom": "Bonnœil",
    "code": "14087",
    "population": 125,
    "centre": {
      "type": "Point",
      "coordinates": [
        -0.3676,
        48.9245
      ]
    }
  },
  {
    "nom": "Bons-Tassilly",
    "code": "14088",
    "population": 392,
    "centre": {
      "type": "Point",
      "coordinates": [
        -0.2377,
        48.9575
      ]
    }
  },
  {
    "nom": "Bougy",
    "code": "14089",
    "population": 376,
    "centre": {
      "type": "Point",
      "coordinates": [
        -0.5215,
        49.11
      ]
    }
  },
  {
    "nom": "Boulon",
    "code": "14090",
    "population": 844,
    "centre": {
      "type": "Point",
      "coordinates": [
        -0.3682,
        49.0522
      ]
    }
  },
  {
    "nom": "Bourgeauville",
    "code": "14091",
    "population": 104,
    "centre": {
      "type": "Point",
      "coordinates": [
        0.0601,
        49.2672
      ]
    }
  },
  {
    "nom": "Bourguébus",
    "code": "14092",
    "population": 2613,
    "centre": {
      "type": "Point",
      "coordinates": [
        -0.2912,
        49.1174
      ]
    }
  },
  {
    "nom": "Branville",
    "code": "14093",
    "population": 238,
    "centre": {
      "type": "Point",
      "coordinates": [
        0.0251,
        49.2684
      ]
    }
  },
  {
    "nom": "Brémoy",
    "code": "14096",
    "population": 262,
    "centre": {
      "type": "Point",
      "coordinates": [
        -0.7795,
        48.9997
      ]
    }
  },
  {
    "nom": "Bretteville-le-Rabet",
    "code": "14097",
    "population": 297,
    "centre": {
      "type": "Point",
      "coordinates": [
        -0.2582,
        49.0294
      ]
    }
  },
  {
    "nom": "Thue et Mue",
    "code": "14098",
    "population": 6182,
    "centre": {
      "type": "Point",
      "coordinates": [
        -0.5398,
        49.1963
      ]
    }
  },
  {
    "nom": "Bretteville-sur-Laize",
    "code": "14100",
    "population": 1910,
    "centre": {
      "type": "Point",
      "coordinates": [
        -0.3237,
        49.0481
      ]
    }
  },
  {
    "nom": "Bretteville-sur-Odon",
    "code": "14101",
    "population": 4494,
    "centre": {
      "type": "Point",
      "coordinates": [
        -0.4212,
        49.1728
      ]
    }
  },
  {
    "nom": "Le Breuil-en-Auge",
    "code": "14102",
    "population": 952,
    "centre": {
      "type": "Point",
      "coordinates": [
        0.2221,
        49.2273
      ]
    }
  },
  {
    "nom": "Le Breuil-en-Bessin",
    "code": "14103",
    "population": 409,
    "centre": {
      "type": "Point",
      "coordinates": [
        -0.8581,
        49.2547
      ]
    }
  },
  {
    "nom": "Le Brévedent",
    "code": "14104",
    "population": 201,
    "centre": {
      "type": "Point",
      "coordinates": [
        0.2926,
        49.2278
      ]
    }
  },
  {
    "nom": "Bréville-les-Monts",
    "code": "14106",
    "population": 661,
    "centre": {
      "type": "Point",
      "coordinates": [
        -0.2177,
        49.2369
      ]
    }
  },
  {
    "nom": "Bricqueville",
    "code": "14107",
    "population": 151,
    "centre": {
      "type": "Point",
      "coordinates": [
        -0.9579,
        49.2887
      ]
    }
  },
  {
    "nom": "Brucourt",
    "code": "14110",
    "population": 129,
    "centre": {
      "type": "Point",
      "coordinates": [
        -0.1028,
        49.2445
      ]
    }
  },
  {
    "nom": "Bucéels",
    "code": "14111",
    "population": 456,
    "centre": {
      "type": "Point",
      "coordinates": [
        -0.6388,
        49.1886
      ]
    }
  },
  {
    "nom": "Le Bû-sur-Rouvres",
    "code": "14116",
    "population": 119,
    "centre": {
      "type": "Point",
      "coordinates": [
        -0.1777,
        49.034
      ]
    }
  },
  {
    "nom": "Cabourg",
    "code": "14117",
    "population": 3725,
    "centre": {
      "type": "Point",
      "coordinates": [
        -0.1201,
        49.2837
      ]
    }
  },
  {
    "nom": "Caen",
    "code": "14118",
    "population": 109400,
    "centre": {
      "type": "Point",
      "coordinates": [
        -0.3722,
        49.1846
      ]
    }
  },
  {
    "nom": "Cagny",
    "code": "14119",
    "population": 2066,
    "centre": {
      "type": "Point",
      "coordinates": [
        -0.2622,
        49.1532
      ]
    }
  },
  {
    "nom": "Cahagnes",
    "code": "14120",
    "population": 1405,
    "centre": {
      "type": "Point",
      "coordinates": [
        -0.7609,
        49.0615
      ]
    }
  },
  {
    "nom": "Cahagnolles",
    "code": "14121",
    "population": 252,
    "centre": {
      "type": "Point",
      "coordinates": [
        -0.7757,
        49.1634
      ]
    }
  },
  {
    "nom": "La Caine",
    "code": "14122",
    "population": 159,
    "centre": {
      "type": "Point",
      "coordinates": [
        -0.5147,
        49.0359
      ]
    }
  },
  {
    "nom": "Cairon",
    "code": "14123",
    "population": 2066,
    "centre": {
      "type": "Point",
      "coordinates": [
        -0.4394,
        49.2317
      ]
    }
  },
  {
    "nom": "La Cambe",
    "code": "14124",
    "population": 548,
    "centre": {
      "type": "Point",
      "coordinates": [
        -1.0147,
        49.3399
      ]
    }
  },
  {
    "nom": "Cambes-en-Plaine",
    "code": "14125",
    "population": 1830,
    "centre": {
      "type": "Point",
      "coordinates": [
        -0.3843,
        49.2308
      ]
    }
  },
  {
    "nom": "Cambremer",
    "code": "14126",
    "population": 1294,
    "centre": {
      "type": "Point",
      "coordinates": [
        0.0543,
        49.1491
      ]
    }
  },
  {
    "nom": "Campagnolles",
    "code": "14127",
    "population": 562,
    "centre": {
      "type": "Point",
      "coordinates": [
        -0.937,
        48.8893
      ]
    }
  },
  {
    "nom": "Campigny",
    "code": "14130",
    "population": 184,
    "centre": {
      "type": "Point",
      "coordinates": [
        -0.7991,
        49.2458
      ]
    }
  },
  {
    "nom": "Canapville",
    "code": "14131",
    "population": 224,
    "centre": {
      "type": "Point",
      "coordinates": [
        0.1368,
        49.3173
      ]
    }
  },
  {
    "nom": "Canchy",
    "code": "14132",
    "population": 202,
    "centre": {
      "type": "Point",
      "coordinates": [
        -0.9843,
        49.3318
      ]
    }
  },
  {
    "nom": "Canteloup",
    "code": "14134",
    "population": 187,
    "centre": {
      "type": "Point",
      "coordinates": [
        -0.1206,
        49.1359
      ]
    }
  },
  {
    "nom": "Carcagny",
    "code": "14135",
    "population": 272,
    "centre": {
      "type": "Point",
      "coordinates": [
        -0.6121,
        49.2405
      ]
    }
  },
  {
    "nom": "Cardonville",
    "code": "14136",
    "population": 90,
    "centre": {
      "type": "Point",
      "coordinates": [
        -1.052,
        49.3472
      ]
    }
  },
  {
    "nom": "Carpiquet",
    "code": "14137",
    "population": 3428,
    "centre": {
      "type": "Point",
      "coordinates": [
        -0.4452,
        49.1872
      ]
    }
  },
  {
    "nom": "Cartigny-l'Épinay",
    "code": "14138",
    "population": 300,
    "centre": {
      "type": "Point",
      "coordinates": [
        -1.0033,
        49.2416
      ]
    }
  },
  {
    "nom": "Castillon",
    "code": "14140",
    "population": 368,
    "centre": {
      "type": "Point",
      "coordinates": [
        -0.8024,
        49.1966
      ]
    }
  },
  {
    "nom": "Castillon-en-Auge",
    "code": "14141",
    "population": 166,
    "centre": {
      "type": "Point",
      "coordinates": [
        0.0917,
        49.0336
      ]
    }
  },
  {
    "nom": "Caumont-sur-Aure",
    "code": "14143",
    "population": 2431,
    "centre": {
      "type": "Point",
      "coordinates": [
        -0.8053,
        49.113
      ]
    }
  },
  {
    "nom": "Cauvicourt",
    "code": "14145",
    "population": 564,
    "centre": {
      "type": "Point",
      "coordinates": [
        -0.2586,
        49.0504
      ]
    }
  },
  {
    "nom": "Cauville",
    "code": "14146",
    "population": 170,
    "centre": {
      "type": "Point",
      "coordinates": [
        -0.5602,
        48.9544
      ]
    }
  },
  {
    "nom": "Cernay",
    "code": "14147",
    "population": 137,
    "centre": {
      "type": "Point",
      "coordinates": [
        0.3244,
        49.0155
      ]
    }
  },
  {
    "nom": "Cesny-aux-Vignes",
    "code": "14149",
    "population": 421,
    "centre": {
      "type": "Point",
      "coordinates": [
        -0.1206,
        49.0855
      ]
    }
  },
  {
    "nom": "Cesny-les-Sources",
    "code": "14150",
    "population": 1411,
    "centre": {
      "type": "Point",
      "coordinates": [
        -0.3761,
        48.9645
      ]
    }
  },
  {
    "nom": "Chouain",
    "code": "14159",
    "population": 229,
    "centre": {
      "type": "Point",
      "coordinates": [
        -0.6424,
        49.2085
      ]
    }
  },
  {
    "nom": "Cintheaux",
    "code": "14160",
    "population": 170,
    "centre": {
      "type": "Point",
      "coordinates": [
        -0.2824,
        49.0644
      ]
    }
  },
  {
    "nom": "Clarbec",
    "code": "14161",
    "population": 314,
    "centre": {
      "type": "Point",
      "coordinates": [
        0.1308,
        49.2408
      ]
    }
  },
  {
    "nom": "Clécy",
    "code": "14162",
    "population": 1286,
    "centre": {
      "type": "Point",
      "coordinates": [
        -0.491,
        48.9041
      ]
    }
  },
  {
    "nom": "Cléville",
    "code": "14163",
    "population": 389,
    "centre": {
      "type": "Point",
      "coordinates": [
        -0.0916,
        49.1433
      ]
    }
  },
  {
    "nom": "Colleville-sur-Mer",
    "code": "14165",
    "population": 207,
    "centre": {
      "type": "Point",
      "coordinates": [
        -0.8475,
        49.3513
      ]
    }
  },
  {
    "nom": "Colleville-Montgomery",
    "code": "14166",
    "population": 2586,
    "centre": {
      "type": "Point",
      "coordinates": [
        -0.3062,
        49.276
      ]
    }
  },
  {
    "nom": "Colombelles",
    "code": "14167",
    "population": 7243,
    "centre": {
      "type": "Point",
      "coordinates": [
        -0.2918,
        49.1998
      ]
    }
  },
  {
    "nom": "Colombières",
    "code": "14168",
    "population": 206,
    "centre": {
      "type": "Point",
      "coordinates": [
        -0.9841,
        49.3039
      ]
    }
  },
  {
    "nom": "Colombiers-sur-Seulles",
    "code": "14169",
    "population": 152,
    "centre": {
      "type": "Point",
      "coordinates": [
        -0.5021,
        49.2996
      ]
    }
  },
  {
    "nom": "Combray",
    "code": "14171",
    "population": 153,
    "centre": {
      "type": "Point",
      "coordinates": [
        -0.4445,
        48.9475
      ]
    }
  },
  {
    "nom": "Commes",
    "code": "14172",
    "population": 471,
    "centre": {
      "type": "Point",
      "coordinates": [
        -0.7423,
        49.3352
      ]
    }
  },
  {
    "nom": "Condé-sur-Ifs",
    "code": "14173",
    "population": 454,
    "centre": {
      "type": "Point",
      "coordinates": [
        -0.14,
        49.0373
      ]
    }
  },
  {
    "nom": "Condé-en-Normandie",
    "code": "14174",
    "population": 5985,
    "centre": {
      "type": "Point",
      "coordinates": [
        -0.5779,
        48.8852
      ]
    }
  },
  {
    "nom": "Condé-sur-Seulles",
    "code": "14175",
    "population": 302,
    "centre": {
      "type": "Point",
      "coordinates": [
        -0.6436,
        49.2223
      ]
    }
  },
  {
    "nom": "Coquainvilliers",
    "code": "14177",
    "population": 849,
    "centre": {
      "type": "Point",
      "coordinates": [
        0.1918,
        49.2013
      ]
    }
  },
  {
    "nom": "Cordebugle",
    "code": "14179",
    "population": 160,
    "centre": {
      "type": "Point",
      "coordinates": [
        0.3789,
        49.1143
      ]
    }
  },
  {
    "nom": "Cordey",
    "code": "14180",
    "population": 154,
    "centre": {
      "type": "Point",
      "coordinates": [
        -0.2231,
        48.8528
      ]
    }
  },
  {
    "nom": "Cormelles-le-Royal",
    "code": "14181",
    "population": 5377,
    "centre": {
      "type": "Point",
      "coordinates": [
        -0.3262,
        49.1556
      ]
    }
  },
  {
    "nom": "Cormolain",
    "code": "14182",
    "population": 392,
    "centre": {
      "type": "Point",
      "coordinates": [
        -0.877,
        49.1251
      ]
    }
  },
  {
    "nom": "Cossesseville",
    "code": "14183",
    "population": 103,
    "centre": {
      "type": "Point",
      "coordinates": [
        -0.4229,
        48.8947
      ]
    }
  },
  {
    "nom": "Cottun",
    "code": "14184",
    "population": 240,
    "centre": {
      "type": "Point",
      "coordinates": [
        -0.7846,
        49.2678
      ]
    }
  },
  {
    "nom": "Courcy",
    "code": "14190",
    "population": 148,
    "centre": {
      "type": "Point",
      "coordinates": [
        -0.0352,
        48.9695
      ]
    }
  },
  {
    "nom": "Courseulles-sur-Mer",
    "code": "14191",
    "population": 4268,
    "centre": {
      "type": "Point",
      "coordinates": [
        -0.4515,
        49.3201
      ]
    }
  },
  {
    "nom": "Courtonne-la-Meurdrac",
    "code": "14193",
    "population": 683,
    "centre": {
      "type": "Point",
      "coordinates": [
        0.3306,
        49.1209
      ]
    }
  },
  {
    "nom": "Courtonne-les-Deux-Églises",
    "code": "14194",
    "population": 627,
    "centre": {
      "type": "Point",
      "coordinates": [
        0.3755,
        49.0856
      ]
    }
  },
  {
    "nom": "Courvaudon",
    "code": "14195",
    "population": 291,
    "centre": {
      "type": "Point",
      "coordinates": [
        -0.5784,
        49.0294
      ]
    }
  },
  {
    "nom": "Crépon",
    "code": "14196",
    "population": 222,
    "centre": {
      "type": "Point",
      "coordinates": [
        -0.5476,
        49.3147
      ]
    }
  },
  {
    "nom": "Cresserons",
    "code": "14197",
    "population": 1068,
    "centre": {
      "type": "Point",
      "coordinates": [
        -0.3545,
        49.288
      ]
    }
  },
  {
    "nom": "Cresseveuille",
    "code": "14198",
    "population": 257,
    "centre": {
      "type": "Point",
      "coordinates": [
        0.0128,
        49.2386
      ]
    }
  },
  {
    "nom": "Creully sur Seulles",
    "code": "14200",
    "population": 2261,
    "centre": {
      "type": "Point",
      "coordinates": [
        -0.5634,
        49.2831
      ]
    }
  },
  {
    "nom": "Cricquebœuf",
    "code": "14202",
    "population": 246,
    "centre": {
      "type": "Point",
      "coordinates": [
        0.1386,
        49.392
      ]
    }
  },
  {
    "nom": "Cricqueville-en-Auge",
    "code": "14203",
    "population": 185,
    "centre": {
      "type": "Point",
      "coordinates": [
        -0.074,
        49.2372
      ]
    }
  },
  {
    "nom": "Cricqueville-en-Bessin",
    "code": "14204",
    "population": 168,
    "centre": {
      "type": "Point",
      "coordinates": [
        -1.0002,
        49.3783
      ]
    }
  },
  {
    "nom": "Cristot",
    "code": "14205",
    "population": 207,
    "centre": {
      "type": "Point",
      "coordinates": [
        -0.5742,
        49.1956
      ]
    }
  },
  {
    "nom": "Crocy",
    "code": "14206",
    "population": 285,
    "centre": {
      "type": "Point",
      "coordinates": [
        -0.0558,
        48.8761
      ]
    }
  },
  {
    "nom": "Croisilles",
    "code": "14207",
    "population": 645,
    "centre": {
      "type": "Point",
      "coordinates": [
        -0.4501,
        49.005
      ]
    }
  },
  {
    "nom": "Crouay",
    "code": "14209",
    "population": 510,
    "centre": {
      "type": "Point",
      "coordinates": [
        -0.8207,
        49.2732
      ]
    }
  },
  {
    "nom": "Culey-le-Patry",
    "code": "14211",
    "population": 384,
    "centre": {
      "type": "Point",
      "coordinates": [
        -0.5309,
        48.9568
      ]
    }
  },
  {
    "nom": "Cussy",
    "code": "14214",
    "population": 167,
    "centre": {
      "type": "Point",
      "coordinates": [
        -0.7612,
        49.2841
      ]
    }
  },
  {
    "nom": "Cuverville",
    "code": "14215",
    "population": 2267,
    "centre": {
      "type": "Point",
      "coordinates": [
        -0.2609,
        49.1938
      ]
    }
  },
  {
    "nom": "Damblainville",
    "code": "14216",
    "population": 227,
    "centre": {
      "type": "Point",
      "coordinates": [
        -0.1245,
        48.9224
      ]
    }
  },
  {
    "nom": "Danestal",
    "code": "14218",
    "population": 352,
    "centre": {
      "type": "Point",
      "coordinates": [
        0.0328,
        49.2444
      ]
    }
  },
  {
    "nom": "Deauville",
    "code": "14220",
    "population": 3539,
    "centre": {
      "type": "Point",
      "coordinates": [
        0.075,
        49.3539
      ]
    }
  },
  {
    "nom": "Démouville",
    "code": "14221",
    "population": 3035,
    "centre": {
      "type": "Point",
      "coordinates": [
        -0.2606,
        49.1751
      ]
    }
  },
  {
    "nom": "Le Détroit",
    "code": "14223",
    "population": 94,
    "centre": {
      "type": "Point",
      "coordinates": [
        -0.3456,
        48.8727
      ]
    }
  },
  {
    "nom": "Deux-Jumeaux",
    "code": "14224",
    "population": 61,
    "centre": {
      "type": "Point",
      "coordinates": [
        -0.9678,
        49.3554
      ]
    }
  },
  {
    "nom": "Dives-sur-Mer",
    "code": "14225",
    "population": 5122,
    "centre": {
      "type": "Point",
      "coordinates": [
        -0.0894,
        49.2818
      ]
    }
  },
  {
    "nom": "Donnay",
    "code": "14226",
    "population": 330,
    "centre": {
      "type": "Point",
      "coordinates": [
        -0.425,
        48.9464
      ]
    }
  },
  {
    "nom": "Douville-en-Auge",
    "code": "14227",
    "population": 221,
    "centre": {
      "type": "Point",
      "coordinates": [
        -0.0204,
        49.2648
      ]
    }
  },
  {
    "nom": "Douvres-la-Délivrande",
    "code": "14228",
    "population": 5143,
    "centre": {
      "type": "Point",
      "coordinates": [
        -0.3875,
        49.2924
      ]
    }
  },
  {
    "nom": "Dozulé",
    "code": "14229",
    "population": 2244,
    "centre": {
      "type": "Point",
      "coordinates": [
        -0.0467,
        49.2296
      ]
    }
  },
  {
    "nom": "Drubec",
    "code": "14230",
    "population": 111,
    "centre": {
      "type": "Point",
      "coordinates": [
        0.1052,
        49.2514
      ]
    }
  },
  {
    "nom": "Beaufour-Druval",
    "code": "14231",
    "population": 453,
    "centre": {
      "type": "Point",
      "coordinates": [
        0.0231,
        49.2111
      ]
    }
  },
  {
    "nom": "Ducy-Sainte-Marguerite",
    "code": "14232",
    "population": 177,
    "centre": {
      "type": "Point",
      "coordinates": [
        -0.6102,
        49.2256
      ]
    }
  },
  {
    "nom": "Ellon",
    "code": "14236",
    "population": 636,
    "centre": {
      "type": "Point",
      "coordinates": [
        -0.6845,
        49.2281
      ]
    }
  },
  {
    "nom": "Émiéville",
    "code": "14237",
    "population": 626,
    "centre": {
      "type": "Point",
      "coordinates": [
        -0.2254,
        49.1549
      ]
    }
  },
  {
    "nom": "Englesqueville-en-Auge",
    "code": "14238",
    "population": 113,
    "centre": {
      "type": "Point",
      "coordinates": [
        0.1514,
        49.3312
      ]
    }
  },
  {
    "nom": "Englesqueville-la-Percée",
    "code": "14239",
    "population": 92,
    "centre": {
      "type": "Point",
      "coordinates": [
        -0.95,
        49.3768
      ]
    }
  },
  {
    "nom": "Épaney",
    "code": "14240",
    "population": 488,
    "centre": {
      "type": "Point",
      "coordinates": [
        -0.1607,
        48.9473
      ]
    }
  },
  {
    "nom": "Épinay-sur-Odon",
    "code": "14241",
    "population": 632,
    "centre": {
      "type": "Point",
      "coordinates": [
        -0.6222,
        49.0723
      ]
    }
  },
  {
    "nom": "Épron",
    "code": "14242",
    "population": 2093,
    "centre": {
      "type": "Point",
      "coordinates": [
        -0.3634,
        49.2195
      ]
    }
  },
  {
    "nom": "Équemauville",
    "code": "14243",
    "population": 1574,
    "centre": {
      "type": "Point",
      "coordinates": [
        0.2092,
        49.4034
      ]
    }
  },
  {
    "nom": "Eraines",
    "code": "14244",
    "population": 279,
    "centre": {
      "type": "Point",
      "coordinates": [
        -0.1543,
        48.9041
      ]
    }
  },
  {
    "nom": "Ernes",
    "code": "14245",
    "population": 327,
    "centre": {
      "type": "Point",
      "coordinates": [
        -0.125,
        49.011
      ]
    }
  },
  {
    "nom": "Escoville",
    "code": "14246",
    "population": 920,
    "centre": {
      "type": "Point",
      "coordinates": [
        -0.2474,
        49.2062
      ]
    }
  },
  {
    "nom": "Espins",
    "code": "14248",
    "population": 244,
    "centre": {
      "type": "Point",
      "coordinates": [
        -0.4125,
        49
      ]
    }
  },
  {
    "nom": "Esquay-Notre-Dame",
    "code": "14249",
    "population": 1444,
    "centre": {
      "type": "Point",
      "coordinates": [
        -0.4757,
        49.1135
      ]
    }
  },
  {
    "nom": "Esquay-sur-Seulles",
    "code": "14250",
    "population": 299,
    "centre": {
      "type": "Point",
      "coordinates": [
        -0.6266,
        49.2694
      ]
    }
  },
  {
    "nom": "Esson",
    "code": "14251",
    "population": 576,
    "centre": {
      "type": "Point",
      "coordinates": [
        -0.458,
        48.9691
      ]
    }
  },
  {
    "nom": "Estrées-la-Campagne",
    "code": "14252",
    "population": 245,
    "centre": {
      "type": "Point",
      "coordinates": [
        -0.2422,
        49.0062
      ]
    }
  },
  {
    "nom": "Éterville",
    "code": "14254",
    "population": 1529,
    "centre": {
      "type": "Point",
      "coordinates": [
        -0.4269,
        49.146
      ]
    }
  },
  {
    "nom": "Étréham",
    "code": "14256",
    "population": 324,
    "centre": {
      "type": "Point",
      "coordinates": [
        -0.7936,
        49.3229
      ]
    }
  },
  {
    "nom": "Évrecy",
    "code": "14257",
    "population": 2066,
    "centre": {
      "type": "Point",
      "coordinates": [
        -0.5048,
        49.0951
      ]
    }
  },
  {
    "nom": "Falaise",
    "code": "14258",
    "population": 7680,
    "centre": {
      "type": "Point",
      "coordinates": [
        -0.1924,
        48.8986
      ]
    }
  },
  {
    "nom": "Fauguernon",
    "code": "14260",
    "population": 221,
    "centre": {
      "type": "Point",
      "coordinates": [
        0.2725,
        49.1888
      ]
    }
  },
  {
    "nom": "Le Faulq",
    "code": "14261",
    "population": 319,
    "centre": {
      "type": "Point",
      "coordinates": [
        0.3207,
        49.2398
      ]
    }
  },
  {
    "nom": "Feuguerolles-Bully",
    "code": "14266",
    "population": 1520,
    "centre": {
      "type": "Point",
      "coordinates": [
        -0.4095,
        49.1125
      ]
    }
  },
  {
    "nom": "Fierville-les-Parcs",
    "code": "14269",
    "population": 237,
    "centre": {
      "type": "Point",
      "coordinates": [
        0.2322,
        49.2437
      ]
    }
  },
  {
    "nom": "Firfol",
    "code": "14270",
    "population": 366,
    "centre": {
      "type": "Point",
      "coordinates": [
        0.3188,
        49.1536
      ]
    }
  },
  {
    "nom": "Fleury-sur-Orne",
    "code": "14271",
    "population": 5941,
    "centre": {
      "type": "Point",
      "coordinates": [
        -0.3784,
        49.1476
      ]
    }
  },
  {
    "nom": "La Folie",
    "code": "14272",
    "population": 108,
    "centre": {
      "type": "Point",
      "coordinates": [
        -0.9719,
        49.2639
      ]
    }
  },
  {
    "nom": "La Folletière-Abenon",
    "code": "14273",
    "population": 138,
    "centre": {
      "type": "Point",
      "coordinates": [
        0.4052,
        48.9732
      ]
    }
  },
  {
    "nom": "Fontaine-Étoupefour",
    "code": "14274",
    "population": 2810,
    "centre": {
      "type": "Point",
      "coordinates": [
        -0.4536,
        49.1381
      ]
    }
  },
  {
    "nom": "Fontaine-Henry",
    "code": "14275",
    "population": 528,
    "centre": {
      "type": "Point",
      "coordinates": [
        -0.4679,
        49.2797
      ]
    }
  },
  {
    "nom": "Fontaine-le-Pin",
    "code": "14276",
    "population": 333,
    "centre": {
      "type": "Point",
      "coordinates": [
        -0.2913,
        48.9731
      ]
    }
  },
  {
    "nom": "Fontenay-le-Marmion",
    "code": "14277",
    "population": 2055,
    "centre": {
      "type": "Point",
      "coordinates": [
        -0.344,
        49.0879
      ]
    }
  },
  {
    "nom": "Fontenay-le-Pesnel",
    "code": "14278",
    "population": 1258,
    "centre": {
      "type": "Point",
      "coordinates": [
        -0.5856,
        49.175
      ]
    }
  },
  {
    "nom": "Formentin",
    "code": "14280",
    "population": 269,
    "centre": {
      "type": "Point",
      "coordinates": [
        0.1381,
        49.2042
      ]
    }
  },
  {
    "nom": "Formigny La Bataille",
    "code": "14281",
    "population": 765,
    "centre": {
      "type": "Point",
      "coordinates": [
        -0.9153,
        49.3485
      ]
    }
  },
  {
    "nom": "Foulognes",
    "code": "14282",
    "population": 220,
    "centre": {
      "type": "Point",
      "coordinates": [
        -0.8066,
        49.1353
      ]
    }
  },
  {
    "nom": "Fourches",
    "code": "14283",
    "population": 215,
    "centre": {
      "type": "Point",
      "coordinates": [
        -0.0782,
        48.8561
      ]
    }
  },
  {
    "nom": "Fourneaux-le-Val",
    "code": "14284",
    "population": 155,
    "centre": {
      "type": "Point",
      "coordinates": [
        -0.2683,
        48.8628
      ]
    }
  },
  {
    "nom": "Le Fournet",
    "code": "14285",
    "population": 77,
    "centre": {
      "type": "Point",
      "coordinates": [
        0.1107,
        49.1996
      ]
    }
  },
  {
    "nom": "Fourneville",
    "code": "14286",
    "population": 488,
    "centre": {
      "type": "Point",
      "coordinates": [
        0.2331,
        49.3562
      ]
    }
  },
  {
    "nom": "Frénouville",
    "code": "14287",
    "population": 2050,
    "centre": {
      "type": "Point",
      "coordinates": [
        -0.2463,
        49.1314
      ]
    }
  },
  {
    "nom": "Le Fresne-Camilly",
    "code": "14288",
    "population": 951,
    "centre": {
      "type": "Point",
      "coordinates": [
        -0.4925,
        49.2562
      ]
    }
  },
  {
    "nom": "Fresné-la-Mère",
    "code": "14289",
    "population": 566,
    "centre": {
      "type": "Point",
      "coordinates": [
        -0.1251,
        48.8869
      ]
    }
  },
  {
    "nom": "Fresney-le-Puceux",
    "code": "14290",
    "population": 808,
    "centre": {
      "type": "Point",
      "coordinates": [
        -0.3449,
        49.0645
      ]
    }
  },
  {
    "nom": "Fresney-le-Vieux",
    "code": "14291",
    "population": 331,
    "centre": {
      "type": "Point",
      "coordinates": [
        -0.3869,
        49.0057
      ]
    }
  },
  {
    "nom": "Fumichon",
    "code": "14293",
    "population": 268,
    "centre": {
      "type": "Point",
      "coordinates": [
        0.3759,
        49.1722
      ]
    }
  },
  {
    "nom": "Gavrus",
    "code": "14297",
    "population": 635,
    "centre": {
      "type": "Point",
      "coordinates": [
        -0.5069,
        49.1163
      ]
    }
  },
  {
    "nom": "Géfosse-Fontenay",
    "code": "14298",
    "population": 129,
    "centre": {
      "type": "Point",
      "coordinates": [
        -1.083,
        49.3643
      ]
    }
  },
  {
    "nom": "Genneville",
    "code": "14299",
    "population": 806,
    "centre": {
      "type": "Point",
      "coordinates": [
        0.2762,
        49.3568
      ]
    }
  },
  {
    "nom": "Giberville",
    "code": "14301",
    "population": 5077,
    "centre": {
      "type": "Point",
      "coordinates": [
        -0.2863,
        49.1765
      ]
    }
  },
  {
    "nom": "Glanville",
    "code": "14302",
    "population": 158,
    "centre": {
      "type": "Point",
      "coordinates": [
        0.0688,
        49.2727
      ]
    }
  },
  {
    "nom": "Glos",
    "code": "14303",
    "population": 931,
    "centre": {
      "type": "Point",
      "coordinates": [
        0.2805,
        49.1237
      ]
    }
  },
  {
    "nom": "Gonneville-sur-Honfleur",
    "code": "14304",
    "population": 859,
    "centre": {
      "type": "Point",
      "coordinates": [
        0.2392,
        49.3829
      ]
    }
  },
  {
    "nom": "Gonneville-sur-Mer",
    "code": "14305",
    "population": 652,
    "centre": {
      "type": "Point",
      "coordinates": [
        -0.0352,
        49.2918
      ]
    }
  },
  {
    "nom": "Gonneville-en-Auge",
    "code": "14306",
    "population": 390,
    "centre": {
      "type": "Point",
      "coordinates": [
        -0.1887,
        49.2595
      ]
    }
  },
  {
    "nom": "Goustranville",
    "code": "14308",
    "population": 378,
    "centre": {
      "type": "Point",
      "coordinates": [
        -0.1118,
        49.2229
      ]
    }
  },
  {
    "nom": "Gouvix",
    "code": "14309",
    "population": 825,
    "centre": {
      "type": "Point",
      "coordinates": [
        -0.3089,
        49.036
      ]
    }
  },
  {
    "nom": "Grainville-Langannerie",
    "code": "14310",
    "population": 812,
    "centre": {
      "type": "Point",
      "coordinates": [
        -0.2697,
        49.0074
      ]
    }
  },
  {
    "nom": "Grainville-sur-Odon",
    "code": "14311",
    "population": 1105,
    "centre": {
      "type": "Point",
      "coordinates": [
        -0.5332,
        49.1377
      ]
    }
  },
  {
    "nom": "Grandcamp-Maisy",
    "code": "14312",
    "population": 1522,
    "centre": {
      "type": "Point",
      "coordinates": [
        -1.0515,
        49.3727
      ]
    }
  },
  {
    "nom": "Grangues",
    "code": "14316",
    "population": 288,
    "centre": {
      "type": "Point",
      "coordinates": [
        -0.0609,
        49.2627
      ]
    }
  },
  {
    "nom": "Graye-sur-Mer",
    "code": "14318",
    "population": 773,
    "centre": {
      "type": "Point",
      "coordinates": [
        -0.4877,
        49.3301
      ]
    }
  },
  {
    "nom": "Grentheville",
    "code": "14319",
    "population": 1025,
    "centre": {
      "type": "Point",
      "coordinates": [
        -0.2924,
        49.147
      ]
    }
  },
  {
    "nom": "Grimbosq",
    "code": "14320",
    "population": 286,
    "centre": {
      "type": "Point",
      "coordinates": [
        -0.4425,
        49.0482
      ]
    }
  },
  {
    "nom": "Guéron",
    "code": "14322",
    "population": 247,
    "centre": {
      "type": "Point",
      "coordinates": [
        -0.7105,
        49.2501
      ]
    }
  },
  {
    "nom": "Hermanville-sur-Mer",
    "code": "14325",
    "population": 3323,
    "centre": {
      "type": "Point",
      "coordinates": [
        -0.3224,
        49.2832
      ]
    }
  },
  {
    "nom": "Hermival-les-Vaux",
    "code": "14326",
    "population": 861,
    "centre": {
      "type": "Point",
      "coordinates": [
        0.2979,
        49.1657
      ]
    }
  },
  {
    "nom": "Hérouville-Saint-Clair",
    "code": "14327",
    "population": 23470,
    "centre": {
      "type": "Point",
      "coordinates": [
        -0.3324,
        49.2042
      ]
    }
  },
  {
    "nom": "Hérouvillette",
    "code": "14328",
    "population": 1354,
    "centre": {
      "type": "Point",
      "coordinates": [
        -0.2615,
        49.2154
      ]
    }
  },
  {
    "nom": "Heuland",
    "code": "14329",
    "population": 148,
    "centre": {
      "type": "Point",
      "coordinates": [
        -0.0024,
        49.2637
      ]
    }
  },
  {
    "nom": "La Hoguette",
    "code": "14332",
    "population": 662,
    "centre": {
      "type": "Point",
      "coordinates": [
        -0.1642,
        48.8568
      ]
    }
  },
  {
    "nom": "Honfleur",
    "code": "14333",
    "population": 6640,
    "centre": {
      "type": "Point",
      "coordinates": [
        0.2297,
        49.4086
      ]
    }
  },
  {
    "nom": "L'Hôtellerie",
    "code": "14334",
    "population": 313,
    "centre": {
      "type": "Point",
      "coordinates": [
        0.4079,
        49.1409
      ]
    }
  },
  {
    "nom": "Hotot-en-Auge",
    "code": "14335",
    "population": 285,
    "centre": {
      "type": "Point",
      "coordinates": [
        -0.0814,
        49.1763
      ]
    }
  },
  {
    "nom": "Hottot-les-Bagues",
    "code": "14336",
    "population": 452,
    "centre": {
      "type": "Point",
      "coordinates": [
        -0.6545,
        49.1453
      ]
    }
  },
  {
    "nom": "La Houblonnière",
    "code": "14337",
    "population": 324,
    "centre": {
      "type": "Point",
      "coordinates": [
        0.0947,
        49.1247
      ]
    }
  },
  {
    "nom": "Houlgate",
    "code": "14338",
    "population": 1834,
    "centre": {
      "type": "Point",
      "coordinates": [
        -0.0674,
        49.297
      ]
    }
  },
  {
    "nom": "Ifs",
    "code": "14341",
    "population": 11937,
    "centre": {
      "type": "Point",
      "coordinates": [
        -0.3385,
        49.1444
      ]
    }
  },
  {
    "nom": "Isigny-sur-Mer",
    "code": "14342",
    "population": 3543,
    "centre": {
      "type": "Point",
      "coordinates": [
        -1.057,
        49.2852
      ]
    }
  },
  {
    "nom": "Les Isles-Bardel",
    "code": "14343",
    "population": 73,
    "centre": {
      "type": "Point",
      "coordinates": [
        -0.3507,
        48.8371
      ]
    }
  },
  {
    "nom": "Janville",
    "code": "14344",
    "population": 382,
    "centre": {
      "type": "Point",
      "coordinates": [
        -0.1628,
        49.1644
      ]
    }
  },
  {
    "nom": "Jort",
    "code": "14345",
    "population": 303,
    "centre": {
      "type": "Point",
      "coordinates": [
        -0.08,
        48.9751
      ]
    }
  },
  {
    "nom": "Juaye-Mondaye",
    "code": "14346",
    "population": 703,
    "centre": {
      "type": "Point",
      "coordinates": [
        -0.6861,
        49.2051
      ]
    }
  },
  {
    "nom": "Dialan sur Chaîne",
    "code": "14347",
    "population": 1006,
    "centre": {
      "type": "Point",
      "coordinates": [
        -0.7444,
        49.0029
      ]
    }
  },
  {
    "nom": "Juvigny-sur-Seulles",
    "code": "14348",
    "population": 77,
    "centre": {
      "type": "Point",
      "coordinates": [
        -0.6037,
        49.1558
      ]
    }
  },
  {
    "nom": "Laize-Clinchamps",
    "code": "14349",
    "population": 2155,
    "centre": {
      "type": "Point",
      "coordinates": [
        -0.3963,
        49.0812
      ]
    }
  },
  {
    "nom": "Landelles-et-Coupigny",
    "code": "14352",
    "population": 818,
    "centre": {
      "type": "Point",
      "coordinates": [
        -1.0013,
        48.8968
      ]
    }
  },
  {
    "nom": "Landes-sur-Ajon",
    "code": "14353",
    "population": 451,
    "centre": {
      "type": "Point",
      "coordinates": [
        -0.5687,
        49.0738
      ]
    }
  },
  {
    "nom": "Langrune-sur-Mer",
    "code": "14354",
    "population": 1916,
    "centre": {
      "type": "Point",
      "coordinates": [
        -0.3805,
        49.3136
      ]
    }
  },
  {
    "nom": "Ponts sur Seulles",
    "code": "14355",
    "population": 1212,
    "centre": {
      "type": "Point",
      "coordinates": [
        -0.5113,
        49.2847
      ]
    }
  },
  {
    "nom": "Terres de Druance",
    "code": "14357",
    "population": 906,
    "centre": {
      "type": "Point",
      "coordinates": [
        -0.6531,
        48.9278
      ]
    }
  },
  {
    "nom": "Léaupartie",
    "code": "14358",
    "population": 86,
    "centre": {
      "type": "Point",
      "coordinates": [
        0.0499,
        49.18
      ]
    }
  },
  {
    "nom": "Leffard",
    "code": "14360",
    "population": 204,
    "centre": {
      "type": "Point",
      "coordinates": [
        -0.2954,
        48.9165
      ]
    }
  },
  {
    "nom": "Lessard-et-le-Chêne",
    "code": "14362",
    "population": 152,
    "centre": {
      "type": "Point",
      "coordinates": [
        0.1293,
        49.0701
      ]
    }
  },
  {
    "nom": "Lingèvres",
    "code": "14364",
    "population": 448,
    "centre": {
      "type": "Point",
      "coordinates": [
        -0.6786,
        49.1738
      ]
    }
  },
  {
    "nom": "Lion-sur-Mer",
    "code": "14365",
    "population": 2486,
    "centre": {
      "type": "Point",
      "coordinates": [
        -0.3329,
        49.3011
      ]
    }
  },
  {
    "nom": "Lisieux",
    "code": "14366",
    "population": 19645,
    "centre": {
      "type": "Point",
      "coordinates": [
        0.2426,
        49.1478
      ]
    }
  },
  {
    "nom": "Lison",
    "code": "14367",
    "population": 451,
    "centre": {
      "type": "Point",
      "coordinates": [
        -1.0557,
        49.2437
      ]
    }
  },
  {
    "nom": "Lisores",
    "code": "14368",
    "population": 260,
    "centre": {
      "type": "Point",
      "coordinates": [
        0.213,
        48.9572
      ]
    }
  },
  {
    "nom": "Litteau",
    "code": "14369",
    "population": 271,
    "centre": {
      "type": "Point",
      "coordinates": [
        -0.9094,
        49.1537
      ]
    }
  },
  {
    "nom": "Le Molay-Littry",
    "code": "14370",
    "population": 3124,
    "centre": {
      "type": "Point",
      "coordinates": [
        -0.8796,
        49.2344
      ]
    }
  },
  {
    "nom": "Livarot-Pays-d'Auge",
    "code": "14371",
    "population": 6207,
    "centre": {
      "type": "Point",
      "coordinates": [
        0.2231,
        49.0014
      ]
    }
  },
  {
    "nom": "Les Loges",
    "code": "14374",
    "population": 136,
    "centre": {
      "type": "Point",
      "coordinates": [
        -0.8037,
        49.0453
      ]
    }
  },
  {
    "nom": "Les Loges-Saulces",
    "code": "14375",
    "population": 156,
    "centre": {
      "type": "Point",
      "coordinates": [
        -0.3065,
        48.8652
      ]
    }
  },
  {
    "nom": "Longues-sur-Mer",
    "code": "14377",
    "population": 585,
    "centre": {
      "type": "Point",
      "coordinates": [
        -0.6911,
        49.3298
      ]
    }
  },
  {
    "nom": "Longueville",
    "code": "14378",
    "population": 295,
    "centre": {
      "type": "Point",
      "coordinates": [
        -0.9542,
        49.3329
      ]
    }
  },
  {
    "nom": "Longvillers",
    "code": "14379",
    "population": 353,
    "centre": {
      "type": "Point",
      "coordinates": [
        -0.6444,
        49.0447
      ]
    }
  },
  {
    "nom": "Loucelles",
    "code": "14380",
    "population": 221,
    "centre": {
      "type": "Point",
      "coordinates": [
        -0.5763,
        49.2275
      ]
    }
  },
  {
    "nom": "Louvagny",
    "code": "14381",
    "population": 58,
    "centre": {
      "type": "Point",
      "coordinates": [
        -0.0465,
        48.9506
      ]
    }
  },
  {
    "nom": "Louvigny",
    "code": "14383",
    "population": 2612,
    "centre": {
      "type": "Point",
      "coordinates": [
        -0.3959,
        49.1533
      ]
    }
  },
  {
    "nom": "Luc-sur-Mer",
    "code": "14384",
    "population": 3275,
    "centre": {
      "type": "Point",
      "coordinates": [
        -0.3562,
        49.3075
      ]
    }
  },
  {
    "nom": "Magny-en-Bessin",
    "code": "14385",
    "population": 164,
    "centre": {
      "type": "Point",
      "coordinates": [
        -0.667,
        49.3122
      ]
    }
  },
  {
    "nom": "Maisoncelles-Pelvey",
    "code": "14389",
    "population": 252,
    "centre": {
      "type": "Point",
      "coordinates": [
        -0.6715,
        49.0598
      ]
    }
  },
  {
    "nom": "Maisoncelles-sur-Ajon",
    "code": "14390",
    "population": 208,
    "centre": {
      "type": "Point",
      "coordinates": [
        -0.5402,
        49.0593
      ]
    }
  },
  {
    "nom": "Maisons",
    "code": "14391",
    "population": 435,
    "centre": {
      "type": "Point",
      "coordinates": [
        -0.7525,
        49.315
      ]
    }
  },
  {
    "nom": "Maizet",
    "code": "14393",
    "population": 360,
    "centre": {
      "type": "Point",
      "coordinates": [
        -0.4578,
        49.0734
      ]
    }
  },
  {
    "nom": "Maizières",
    "code": "14394",
    "population": 437,
    "centre": {
      "type": "Point",
      "coordinates": [
        -0.1694,
        49.0103
      ]
    }
  },
  {
    "nom": "Maltot",
    "code": "14396",
    "population": 1060,
    "centre": {
      "type": "Point",
      "coordinates": [
        -0.4263,
        49.1329
      ]
    }
  },
  {
    "nom": "Mandeville-en-Bessin",
    "code": "14397",
    "population": 303,
    "centre": {
      "type": "Point",
      "coordinates": [
        -0.8643,
        49.3065
      ]
    }
  },
  {
    "nom": "Manerbe",
    "code": "14398",
    "population": 544,
    "centre": {
      "type": "Point",
      "coordinates": [
        0.1406,
        49.1792
      ]
    }
  },
  {
    "nom": "Manneville-la-Pipard",
    "code": "14399",
    "population": 257,
    "centre": {
      "type": "Point",
      "coordinates": [
        0.2288,
        49.2647
      ]
    }
  },
  {
    "nom": "Le Manoir",
    "code": "14400",
    "population": 195,
    "centre": {
      "type": "Point",
      "coordinates": [
        -0.6014,
        49.2903
      ]
    }
  },
  {
    "nom": "Manvieux",
    "code": "14401",
    "population": 129,
    "centre": {
      "type": "Point",
      "coordinates": [
        -0.6585,
        49.3351
      ]
    }
  },
  {
    "nom": "Le Marais-la-Chapelle",
    "code": "14402",
    "population": 92,
    "centre": {
      "type": "Point",
      "coordinates": [
        -0.0227,
        48.8829
      ]
    }
  },
  {
    "nom": "Marolles",
    "code": "14403",
    "population": 749,
    "centre": {
      "type": "Point",
      "coordinates": [
        0.3706,
        49.1403
      ]
    }
  },
  {
    "nom": "Martainville",
    "code": "14404",
    "population": 116,
    "centre": {
      "type": "Point",
      "coordinates": [
        -0.351,
        48.9448
      ]
    }
  },
  {
    "nom": "Martigny-sur-l'Ante",
    "code": "14405",
    "population": 316,
    "centre": {
      "type": "Point",
      "coordinates": [
        -0.2899,
        48.8909
      ]
    }
  },
  {
    "nom": "Moulins-en-Bessin",
    "code": "14406",
    "population": 1125,
    "centre": {
      "type": "Point",
      "coordinates": [
        -0.5574,
        49.2516
      ]
    }
  },
  {
    "nom": "Mathieu",
    "code": "14407",
    "population": 2331,
    "centre": {
      "type": "Point",
      "coordinates": [
        -0.3638,
        49.2551
      ]
    }
  },
  {
    "nom": "Saint-Martin-de-May",
    "code": "14408",
    "population": 4529,
    "centre": {
      "type": "Point",
      "coordinates": [
        -0.359,
        49.1079
      ]
    }
  },
  {
    "nom": "Merville-Franceville-Plage",
    "code": "14409",
    "population": 2231,
    "centre": {
      "type": "Point",
      "coordinates": [
        -0.1999,
        49.267
      ]
    }
  },
  {
    "nom": "Méry-Bissières-en-Auge",
    "code": "14410",
    "population": 1082,
    "centre": {
      "type": "Point",
      "coordinates": [
        -0.0765,
        49.1312
      ]
    }
  },
  {
    "nom": "Meslay",
    "code": "14411",
    "population": 338,
    "centre": {
      "type": "Point",
      "coordinates": [
        -0.3933,
        48.9532
      ]
    }
  },
  {
    "nom": "Le Mesnil-au-Grain",
    "code": "14412",
    "population": 74,
    "centre": {
      "type": "Point",
      "coordinates": [
        -0.6116,
        49.0469
      ]
    }
  },
  {
    "nom": "Le Mesnil-Eudes",
    "code": "14419",
    "population": 252,
    "centre": {
      "type": "Point",
      "coordinates": [
        0.1766,
        49.093
      ]
    }
  },
  {
    "nom": "Le Mesnil-Guillaume",
    "code": "14421",
    "population": 551,
    "centre": {
      "type": "Point",
      "coordinates": [
        0.2821,
        49.1055
      ]
    }
  },
  {
    "nom": "Le Mesnil-Robert",
    "code": "14424",
    "population": 181,
    "centre": {
      "type": "Point",
      "coordinates": [
        -0.9731,
        48.8801
      ]
    }
  },
  {
    "nom": "Le Mesnil-Simon",
    "code": "14425",
    "population": 158,
    "centre": {
      "type": "Point",
      "coordinates": [
        0.1117,
        49.0896
      ]
    }
  },
  {
    "nom": "Le Mesnil-sur-Blangy",
    "code": "14426",
    "population": 175,
    "centre": {
      "type": "Point",
      "coordinates": [
        0.2637,
        49.2591
      ]
    }
  },
  {
    "nom": "Le Mesnil-Villement",
    "code": "14427",
    "population": 282,
    "centre": {
      "type": "Point",
      "coordinates": [
        -0.3816,
        48.8573
      ]
    }
  },
  {
    "nom": "Meuvaines",
    "code": "14430",
    "population": 136,
    "centre": {
      "type": "Point",
      "coordinates": [
        -0.5768,
        49.3243
      ]
    }
  },
  {
    "nom": "Mézidon Vallée d'Auge",
    "code": "14431",
    "population": 9766,
    "centre": {
      "type": "Point",
      "coordinates": [
        -0.0169,
        49.086
      ]
    }
  },
  {
    "nom": "Les Monceaux",
    "code": "14435",
    "population": 198,
    "centre": {
      "type": "Point",
      "coordinates": [
        0.1301,
        49.1087
      ]
    }
  },
  {
    "nom": "Monceaux-en-Bessin",
    "code": "14436",
    "population": 601,
    "centre": {
      "type": "Point",
      "coordinates": [
        -0.6874,
        49.2521
      ]
    }
  },
  {
    "nom": "Mondeville",
    "code": "14437",
    "population": 10331,
    "centre": {
      "type": "Point",
      "coordinates": [
        -0.3097,
        49.1707
      ]
    }
  },
  {
    "nom": "Mondrainville",
    "code": "14438",
    "population": 594,
    "centre": {
      "type": "Point",
      "coordinates": [
        -0.5124,
        49.141
      ]
    }
  },
  {
    "nom": "Monfréville",
    "code": "14439",
    "population": 101,
    "centre": {
      "type": "Point",
      "coordinates": [
        -1.035,
        49.3107
      ]
    }
  },
  {
    "nom": "Montfiquet",
    "code": "14445",
    "population": 81,
    "centre": {
      "type": "Point",
      "coordinates": [
        -0.9032,
        49.1887
      ]
    }
  },
  {
    "nom": "Montigny",
    "code": "14446",
    "population": 86,
    "centre": {
      "type": "Point",
      "coordinates": [
        -0.535,
        49.0415
      ]
    }
  },
  {
    "nom": "Montreuil-en-Auge",
    "code": "14448",
    "population": 65,
    "centre": {
      "type": "Point",
      "coordinates": [
        0.0672,
        49.1687
      ]
    }
  },
  {
    "nom": "Monts-en-Bessin",
    "code": "14449",
    "population": 422,
    "centre": {
      "type": "Point",
      "coordinates": [
        -0.6167,
        49.1182
      ]
    }
  },
  {
    "nom": "Morteaux-Coulibœuf",
    "code": "14452",
    "population": 601,
    "centre": {
      "type": "Point",
      "coordinates": [
        -0.0797,
        48.9245
      ]
    }
  },
  {
    "nom": "Mosles",
    "code": "14453",
    "population": 368,
    "centre": {
      "type": "Point",
      "coordinates": [
        -0.8196,
        49.3077
      ]
    }
  },
  {
    "nom": "Mouen",
    "code": "14454",
    "population": 1788,
    "centre": {
      "type": "Point",
      "coordinates": [
        -0.4874,
        49.1477
      ]
    }
  },
  {
    "nom": "Moulines",
    "code": "14455",
    "population": 272,
    "centre": {
      "type": "Point",
      "coordinates": [
        -0.348,
        48.9922
      ]
    }
  },
  {
    "nom": "Moult-Chicheboville",
    "code": "14456",
    "population": 3441,
    "centre": {
      "type": "Point",
      "coordinates": [
        -0.1898,
        49.1123
      ]
    }
  },
  {
    "nom": "Les Moutiers-en-Auge",
    "code": "14457",
    "population": 130,
    "centre": {
      "type": "Point",
      "coordinates": [
        0.0115,
        48.8965
      ]
    }
  },
  {
    "nom": "Les Moutiers-en-Cinglais",
    "code": "14458",
    "population": 528,
    "centre": {
      "type": "Point",
      "coordinates": [
        -0.439,
        49.0219
      ]
    }
  },
  {
    "nom": "Moyaux",
    "code": "14460",
    "population": 1383,
    "centre": {
      "type": "Point",
      "coordinates": [
        0.3491,
        49.1974
      ]
    }
  },
  {
    "nom": "Mutrécy",
    "code": "14461",
    "population": 593,
    "centre": {
      "type": "Point",
      "coordinates": [
        -0.424,
        49.067
      ]
    }
  },
  {
    "nom": "Nonant",
    "code": "14465",
    "population": 520,
    "centre": {
      "type": "Point",
      "coordinates": [
        -0.6462,
        49.2378
      ]
    }
  },
  {
    "nom": "Norolles",
    "code": "14466",
    "population": 361,
    "centre": {
      "type": "Point",
      "coordinates": [
        0.2376,
        49.2025
      ]
    }
  },
  {
    "nom": "Noron-l'Abbaye",
    "code": "14467",
    "population": 327,
    "centre": {
      "type": "Point",
      "coordinates": [
        -0.2431,
        48.8958
      ]
    }
  },
  {
    "nom": "Noron-la-Poterie",
    "code": "14468",
    "population": 332,
    "centre": {
      "type": "Point",
      "coordinates": [
        -0.7756,
        49.2237
      ]
    }
  },
  {
    "nom": "Norrey-en-Auge",
    "code": "14469",
    "population": 93,
    "centre": {
      "type": "Point",
      "coordinates": [
        -0.0164,
        48.9129
      ]
    }
  },
  {
    "nom": "Notre-Dame-de-Livaye",
    "code": "14473",
    "population": 105,
    "centre": {
      "type": "Point",
      "coordinates": [
        0.0442,
        49.1185
      ]
    }
  },
  {
    "nom": "Notre-Dame-d'Estrées-Corbon",
    "code": "14474",
    "population": 185,
    "centre": {
      "type": "Point",
      "coordinates": [
        -0.0145,
        49.1357
      ]
    }
  },
  {
    "nom": "Val d'Arry",
    "code": "14475",
    "population": 2496,
    "centre": {
      "type": "Point",
      "coordinates": [
        -0.57,
        49.1111
      ]
    }
  },
  {
    "nom": "Olendon",
    "code": "14476",
    "population": 190,
    "centre": {
      "type": "Point",
      "coordinates": [
        -0.1685,
        48.9689
      ]
    }
  },
  {
    "nom": "Orbec",
    "code": "14478",
    "population": 1975,
    "centre": {
      "type": "Point",
      "coordinates": [
        0.3824,
        49.0261
      ]
    }
  },
  {
    "nom": "Osmanville",
    "code": "14480",
    "population": 510,
    "centre": {
      "type": "Point",
      "coordinates": [
        -1.0864,
        49.3331
      ]
    }
  },
  {
    "nom": "Ouézy",
    "code": "14482",
    "population": 227,
    "centre": {
      "type": "Point",
      "coordinates": [
        -0.1038,
        49.0853
      ]
    }
  },
  {
    "nom": "Ouffières",
    "code": "14483",
    "population": 200,
    "centre": {
      "type": "Point",
      "coordinates": [
        -0.4908,
        49.0246
      ]
    }
  },
  {
    "nom": "Ouilly-du-Houley",
    "code": "14484",
    "population": 256,
    "centre": {
      "type": "Point",
      "coordinates": [
        0.3355,
        49.1635
      ]
    }
  },
  {
    "nom": "Ouilly-le-Tesson",
    "code": "14486",
    "population": 571,
    "centre": {
      "type": "Point",
      "coordinates": [
        -0.2132,
        48.9912
      ]
    }
  },
  {
    "nom": "Ouilly-le-Vicomte",
    "code": "14487",
    "population": 756,
    "centre": {
      "type": "Point",
      "coordinates": [
        0.2124,
        49.1785
      ]
    }
  },
  {
    "nom": "Ouistreham",
    "code": "14488",
    "population": 9212,
    "centre": {
      "type": "Point",
      "coordinates": [
        -0.2564,
        49.2709
      ]
    }
  },
  {
    "nom": "Parfouru-sur-Odon",
    "code": "14491",
    "population": 198,
    "centre": {
      "type": "Point",
      "coordinates": [
        -0.61,
        49.0895
      ]
    }
  },
  {
    "nom": "Pennedepie",
    "code": "14492",
    "population": 306,
    "centre": {
      "type": "Point",
      "coordinates": [
        0.162,
        49.3977
      ]
    }
  },
  {
    "nom": "Périers-en-Auge",
    "code": "14494",
    "population": 119,
    "centre": {
      "type": "Point",
      "coordinates": [
        -0.0935,
        49.2644
      ]
    }
  },
  {
    "nom": "Périers-sur-le-Dan",
    "code": "14495",
    "population": 587,
    "centre": {
      "type": "Point",
      "coordinates": [
        -0.3366,
        49.2575
      ]
    }
  },
  {
    "nom": "Périgny",
    "code": "14496",
    "population": 58,
    "centre": {
      "type": "Point",
      "coordinates": [
        -0.6054,
        48.918
      ]
    }
  },
  {
    "nom": "Perrières",
    "code": "14497",
    "population": 332,
    "centre": {
      "type": "Point",
      "coordinates": [
        -0.1276,
        48.9573
      ]
    }
  },
  {
    "nom": "Pertheville-Ners",
    "code": "14498",
    "population": 234,
    "centre": {
      "type": "Point",
      "coordinates": [
        -0.1089,
        48.8747
      ]
    }
  },
  {
    "nom": "Petiville",
    "code": "14499",
    "population": 560,
    "centre": {
      "type": "Point",
      "coordinates": [
        -0.1688,
        49.2412
      ]
    }
  },
  {
    "nom": "Pierrefitte-en-Auge",
    "code": "14500",
    "population": 152,
    "centre": {
      "type": "Point",
      "coordinates": [
        0.1993,
        49.2563
      ]
    }
  },
  {
    "nom": "Pierrefitte-en-Cinglais",
    "code": "14501",
    "population": 237,
    "centre": {
      "type": "Point",
      "coordinates": [
        -0.3856,
        48.9066
      ]
    }
  },
  {
    "nom": "Pierrepont",
    "code": "14502",
    "population": 83,
    "centre": {
      "type": "Point",
      "coordinates": [
        -0.324,
        48.8851
      ]
    }
  },
  {
    "nom": "Le Pin",
    "code": "14504",
    "population": 797,
    "centre": {
      "type": "Point",
      "coordinates": [
        0.3448,
        49.2124
      ]
    }
  },
  {
    "nom": "Planquery",
    "code": "14506",
    "population": 249,
    "centre": {
      "type": "Point",
      "coordinates": [
        -0.8288,
        49.1645
      ]
    }
  },
  {
    "nom": "Plumetot",
    "code": "14509",
    "population": 200,
    "centre": {
      "type": "Point",
      "coordinates": [
        -0.3626,
        49.2785
      ]
    }
  },
  {
    "nom": "La Pommeraye",
    "code": "14510",
    "population": 66,
    "centre": {
      "type": "Point",
      "coordinates": [
        -0.4163,
        48.9102
      ]
    }
  },
  {
    "nom": "Pont-Bellanger",
    "code": "14511",
    "population": 60,
    "centre": {
      "type": "Point",
      "coordinates": [
        -0.9833,
        48.9361
      ]
    }
  },
  {
    "nom": "Pontécoulant",
    "code": "14512",
    "population": 71,
    "centre": {
      "type": "Point",
      "coordinates": [
        -0.5832,
        48.8877
      ]
    }
  },
  {
    "nom": "Pont-l'Évêque",
    "code": "14514",
    "population": 5145,
    "centre": {
      "type": "Point",
      "coordinates": [
        0.1829,
        49.2905
      ]
    }
  },
  {
    "nom": "Port-en-Bessin-Huppain",
    "code": "14515",
    "population": 1876,
    "centre": {
      "type": "Point",
      "coordinates": [
        -0.7727,
        49.3387
      ]
    }
  },
  {
    "nom": "Potigny",
    "code": "14516",
    "population": 2089,
    "centre": {
      "type": "Point",
      "coordinates": [
        -0.2462,
        48.9713
      ]
    }
  },
  {
    "nom": "Préaux-Bocage",
    "code": "14519",
    "population": 107,
    "centre": {
      "type": "Point",
      "coordinates": [
        -0.5084,
        49.0523
      ]
    }
  },
  {
    "nom": "Le Pré-d'Auge",
    "code": "14520",
    "population": 841,
    "centre": {
      "type": "Point",
      "coordinates": [
        0.138,
        49.1523
      ]
    }
  },
  {
    "nom": "Prêtreville",
    "code": "14522",
    "population": 391,
    "centre": {
      "type": "Point",
      "coordinates": [
        0.2526,
        49.0726
      ]
    }
  },
  {
    "nom": "Putot-en-Auge",
    "code": "14524",
    "population": 307,
    "centre": {
      "type": "Point",
      "coordinates": [
        -0.0652,
        49.2133
      ]
    }
  },
  {
    "nom": "Belle Vie en Auge",
    "code": "14527",
    "population": 538,
    "centre": {
      "type": "Point",
      "coordinates": [
        -0.0192,
        49.1184
      ]
    }
  },
  {
    "nom": "Quetteville",
    "code": "14528",
    "population": 397,
    "centre": {
      "type": "Point",
      "coordinates": [
        0.3006,
        49.3449
      ]
    }
  },
  {
    "nom": "Ranchy",
    "code": "14529",
    "population": 270,
    "centre": {
      "type": "Point",
      "coordinates": [
        -0.7627,
        49.2552
      ]
    }
  },
  {
    "nom": "Ranville",
    "code": "14530",
    "population": 2074,
    "centre": {
      "type": "Point",
      "coordinates": [
        -0.2644,
        49.2277
      ]
    }
  },
  {
    "nom": "Rapilly",
    "code": "14531",
    "population": 44,
    "centre": {
      "type": "Point",
      "coordinates": [
        -0.346,
        48.8588
      ]
    }
  },
  {
    "nom": "Repentigny",
    "code": "14533",
    "population": 102,
    "centre": {
      "type": "Point",
      "coordinates": [
        0.0416,
        49.1982
      ]
    }
  },
  {
    "nom": "Reux",
    "code": "14534",
    "population": 415,
    "centre": {
      "type": "Point",
      "coordinates": [
        0.1532,
        49.2753
      ]
    }
  },
  {
    "nom": "Reviers",
    "code": "14535",
    "population": 627,
    "centre": {
      "type": "Point",
      "coordinates": [
        -0.4647,
        49.2977
      ]
    }
  },
  {
    "nom": "La Rivière-Saint-Sauveur",
    "code": "14536",
    "population": 2527,
    "centre": {
      "type": "Point",
      "coordinates": [
        0.2641,
        49.4086
      ]
    }
  },
  {
    "nom": "Castine-en-Plaine",
    "code": "14538",
    "population": 1774,
    "centre": {
      "type": "Point",
      "coordinates": [
        -0.3053,
        49.1092
      ]
    }
  },
  {
    "nom": "Rocques",
    "code": "14540",
    "population": 285,
    "centre": {
      "type": "Point",
      "coordinates": [
        0.2512,
        49.1693
      ]
    }
  },
  {
    "nom": "La Roque-Baignard",
    "code": "14541",
    "population": 104,
    "centre": {
      "type": "Point",
      "coordinates": [
        0.0916,
        49.178
      ]
    }
  },
  {
    "nom": "Rosel",
    "code": "14542",
    "population": 696,
    "centre": {
      "type": "Point",
      "coordinates": [
        -0.4495,
        49.2231
      ]
    }
  },
  {
    "nom": "Rots",
    "code": "14543",
    "population": 2544,
    "centre": {
      "type": "Point",
      "coordinates": [
        -0.4913,
        49.2153
      ]
    }
  },
  {
    "nom": "Rouvres",
    "code": "14546",
    "population": 220,
    "centre": {
      "type": "Point",
      "coordinates": [
        -0.1852,
        49.0026
      ]
    }
  },
  {
    "nom": "Rubercy",
    "code": "14547",
    "population": 152,
    "centre": {
      "type": "Point",
      "coordinates": [
        -0.8799,
        49.2831
      ]
    }
  },
  {
    "nom": "Rumesnil",
    "code": "14550",
    "population": 87,
    "centre": {
      "type": "Point",
      "coordinates": [
        0.0193,
        49.1874
      ]
    }
  },
  {
    "nom": "Ryes",
    "code": "14552",
    "population": 482,
    "centre": {
      "type": "Point",
      "coordinates": [
        -0.6293,
        49.3158
      ]
    }
  },
  {
    "nom": "Le Castelet",
    "code": "14554",
    "population": 1850,
    "centre": {
      "type": "Point",
      "coordinates": [
        -0.2811,
        49.087
      ]
    }
  },
  {
    "nom": "Saint-André-d'Hébertot",
    "code": "14555",
    "population": 451,
    "centre": {
      "type": "Point",
      "coordinates": [
        0.2862,
        49.3005
      ]
    }
  },
  {
    "nom": "Saint-André-sur-Orne",
    "code": "14556",
    "population": 1664,
    "centre": {
      "type": "Point",
      "coordinates": [
        -0.3893,
        49.1234
      ]
    }
  },
  {
    "nom": "Saint-Arnoult",
    "code": "14557",
    "population": 1092,
    "centre": {
      "type": "Point",
      "coordinates": [
        0.092,
        49.3307
      ]
    }
  },
  {
    "nom": "Saint-Aubin-d'Arquenay",
    "code": "14558",
    "population": 1118,
    "centre": {
      "type": "Point",
      "coordinates": [
        -0.2844,
        49.2617
      ]
    }
  },
  {
    "nom": "Saint-Aubin-des-Bois",
    "code": "14559",
    "population": 226,
    "centre": {
      "type": "Point",
      "coordinates": [
        -1.1339,
        48.8336
      ]
    }
  },
  {
    "nom": "Saint-Aubin-sur-Mer",
    "code": "14562",
    "population": 2101,
    "centre": {
      "type": "Point",
      "coordinates": [
        -0.3914,
        49.3225
      ]
    }
  },
  {
    "nom": "Saint-Benoît-d'Hébertot",
    "code": "14563",
    "population": 446,
    "centre": {
      "type": "Point",
      "coordinates": [
        0.2766,
        49.3245
      ]
    }
  },
  {
    "nom": "Saint-Côme-de-Fresné",
    "code": "14565",
    "population": 256,
    "centre": {
      "type": "Point",
      "coordinates": [
        -0.6023,
        49.3231
      ]
    }
  },
  {
    "nom": "Saint-Contest",
    "code": "14566",
    "population": 2465,
    "centre": {
      "type": "Point",
      "coordinates": [
        -0.4001,
        49.2139
      ]
    }
  },
  {
    "nom": "Sainte-Croix-sur-Mer",
    "code": "14569",
    "population": 243,
    "centre": {
      "type": "Point",
      "coordinates": [
        -0.5095,
        49.3163
      ]
    }
  },
  {
    "nom": "Valorbiquet",
    "code": "14570",
    "population": 2439,
    "centre": {
      "type": "Point",
      "coordinates": [
        0.3336,
        49.0614
      ]
    }
  },
  {
    "nom": "Saint-Denis-de-Mailloc",
    "code": "14571",
    "population": 296,
    "centre": {
      "type": "Point",
      "coordinates": [
        0.317,
        49.0987
      ]
    }
  },
  {
    "nom": "Saint-Denis-de-Méré",
    "code": "14572",
    "population": 754,
    "centre": {
      "type": "Point",
      "coordinates": [
        -0.5028,
        48.8626
      ]
    }
  },
  {
    "nom": "Saint-Désir",
    "code": "14574",
    "population": 1756,
    "centre": {
      "type": "Point",
      "coordinates": [
        0.192,
        49.1467
      ]
    }
  },
  {
    "nom": "Saint-Étienne-la-Thillaye",
    "code": "14575",
    "population": 386,
    "centre": {
      "type": "Point",
      "coordinates": [
        0.1169,
        49.2951
      ]
    }
  },
  {
    "nom": "Val-de-Vie",
    "code": "14576",
    "population": 502,
    "centre": {
      "type": "Point",
      "coordinates": [
        0.1621,
        48.957
      ]
    }
  },
  {
    "nom": "Saint-Gatien-des-Bois",
    "code": "14578",
    "population": 1295,
    "centre": {
      "type": "Point",
      "coordinates": [
        0.1926,
        49.3511
      ]
    }
  },
  {
    "nom": "Seulline",
    "code": "14579",
    "population": 1312,
    "centre": {
      "type": "Point",
      "coordinates": [
        -0.6975,
        49.0317
      ]
    }
  },
  {
    "nom": "Aurseulles",
    "code": "14581",
    "population": 1896,
    "centre": {
      "type": "Point",
      "coordinates": [
        -0.6993,
        49.1338
      ]
    }
  },
  {
    "nom": "Saint-Germain-de-Livet",
    "code": "14582",
    "population": 688,
    "centre": {
      "type": "Point",
      "coordinates": [
        0.1974,
        49.0797
      ]
    }
  },
  {
    "nom": "Saint-Germain-du-Pert",
    "code": "14586",
    "population": 148,
    "centre": {
      "type": "Point",
      "coordinates": [
        -1.0427,
        49.3299
      ]
    }
  },
  {
    "nom": "Saint-Germain-la-Blanche-Herbe",
    "code": "14587",
    "population": 2482,
    "centre": {
      "type": "Point",
      "coordinates": [
        -0.4227,
        49.1961
      ]
    }
  },
  {
    "nom": "Saint-Germain-Langot",
    "code": "14588",
    "population": 350,
    "centre": {
      "type": "Point",
      "coordinates": [
        -0.3283,
        48.9223
      ]
    }
  },
  {
    "nom": "Saint-Germain-le-Vasson",
    "code": "14589",
    "population": 966,
    "centre": {
      "type": "Point",
      "coordinates": [
        -0.302,
        49.0007
      ]
    }
  },
  {
    "nom": "Sainte-Honorine-de-Ducy",
    "code": "14590",
    "population": 136,
    "centre": {
      "type": "Point",
      "coordinates": [
        -0.7855,
        49.1379
      ]
    }
  },
  {
    "nom": "Aure sur Mer",
    "code": "14591",
    "population": 692,
    "centre": {
      "type": "Point",
      "coordinates": [
        -0.8111,
        49.3356
      ]
    }
  },
  {
    "nom": "Sainte-Honorine-du-Fay",
    "code": "14592",
    "population": 1362,
    "centre": {
      "type": "Point",
      "coordinates": [
        -0.4874,
        49.0714
      ]
    }
  },
  {
    "nom": "Saint-Hymer",
    "code": "14593",
    "population": 656,
    "centre": {
      "type": "Point",
      "coordinates": [
        0.1646,
        49.2408
      ]
    }
  },
  {
    "nom": "Saint-Jean-de-Livet",
    "code": "14595",
    "population": 229,
    "centre": {
      "type": "Point",
      "coordinates": [
        0.2426,
        49.0932
      ]
    }
  },
  {
    "nom": "Saint-Jouin",
    "code": "14598",
    "population": 300,
    "centre": {
      "type": "Point",
      "coordinates": [
        -0.0115,
        49.2194
      ]
    }
  },
  {
    "nom": "Saint-Julien-sur-Calonne",
    "code": "14601",
    "population": 178,
    "centre": {
      "type": "Point",
      "coordinates": [
        0.2296,
        49.2873
      ]
    }
  },
  {
    "nom": "Saint-Lambert",
    "code": "14602",
    "population": 262,
    "centre": {
      "type": "Point",
      "coordinates": [
        -0.5355,
        48.9364
      ]
    }
  },
  {
    "nom": "Saint-Laurent-de-Condel",
    "code": "14603",
    "population": 512,
    "centre": {
      "type": "Point",
      "coordinates": [
        -0.3885,
        49.0303
      ]
    }
  },
  {
    "nom": "Saint-Laurent-sur-Mer",
    "code": "14605",
    "population": 268,
    "centre": {
      "type": "Point",
      "coordinates": [
        -0.877,
        49.3578
      ]
    }
  },
  {
    "nom": "Saint-Léger-Dubosq",
    "code": "14606",
    "population": 251,
    "centre": {
      "type": "Point",
      "coordinates": [
        -0.0142,
        49.2313
      ]
    }
  },
  {
    "nom": "Saint-Louet-sur-Seulles",
    "code": "14607",
    "population": 148,
    "centre": {
      "type": "Point",
      "coordinates": [
        -0.6778,
        49.0972
      ]
    }
  },
  {
    "nom": "Saint-Loup-Hors",
    "code": "14609",
    "population": 504,
    "centre": {
      "type": "Point",
      "coordinates": [
        -0.7276,
        49.2603
      ]
    }
  },
  {
    "nom": "Saint-Manvieu-Norrey",
    "code": "14610",
    "population": 2160,
    "centre": {
      "type": "Point",
      "coordinates": [
        -0.5025,
        49.1863
      ]
    }
  },
  {
    "nom": "Saint-Marcouf",
    "code": "14613",
    "population": 84,
    "centre": {
      "type": "Point",
      "coordinates": [
        -1.0024,
        49.2552
      ]
    }
  },
  {
    "nom": "Sainte-Marguerite-d'Elle",
    "code": "14614",
    "population": 757,
    "centre": {
      "type": "Point",
      "coordinates": [
        -0.9909,
        49.2193
      ]
    }
  },
  {
    "nom": "Sainte-Marie-Outre-l'Eau",
    "code": "14619",
    "population": 124,
    "centre": {
      "type": "Point",
      "coordinates": [
        -1.0287,
        48.9302
      ]
    }
  },
  {
    "nom": "Saint-Martin-aux-Chartrains",
    "code": "14620",
    "population": 429,
    "centre": {
      "type": "Point",
      "coordinates": [
        0.1547,
        49.3058
      ]
    }
  },
  {
    "nom": "Saint-Martin-de-Bienfaite-la-Cressonnière",
    "code": "14621",
    "population": 536,
    "centre": {
      "type": "Point",
      "coordinates": [
        0.3522,
        49.0314
      ]
    }
  },
  {
    "nom": "Saint-Martin-de-Blagny",
    "code": "14622",
    "population": 118,
    "centre": {
      "type": "Point",
      "coordinates": [
        -0.9358,
        49.2473
      ]
    }
  },
  {
    "nom": "Saint-Martin-de-la-Lieue",
    "code": "14625",
    "population": 763,
    "centre": {
      "type": "Point",
      "coordinates": [
        0.2231,
        49.111
      ]
    }
  },
  {
    "nom": "Saint-Martin-de-Mailloc",
    "code": "14626",
    "population": 1040,
    "centre": {
      "type": "Point",
      "coordinates": [
        0.283,
        49.089
      ]
    }
  },
  {
    "nom": "Saint-Martin-de-Mieux",
    "code": "14627",
    "population": 396,
    "centre": {
      "type": "Point",
      "coordinates": [
        -0.2424,
        48.8713
      ]
    }
  },
  {
    "nom": "Saint-Martin-des-Entrées",
    "code": "14630",
    "population": 784,
    "centre": {
      "type": "Point",
      "coordinates": [
        -0.6659,
        49.2572
      ]
    }
  },
  {
    "nom": "Saint-Omer",
    "code": "14635",
    "population": 191,
    "centre": {
      "type": "Point",
      "coordinates": [
        -0.4426,
        48.9296
      ]
    }
  },
  {
    "nom": "Saint-Ouen-du-Mesnil-Oger",
    "code": "14637",
    "population": 233,
    "centre": {
      "type": "Point",
      "coordinates": [
        -0.1187,
        49.1608
      ]
    }
  },
  {
    "nom": "Saint-Ouen-le-Pin",
    "code": "14639",
    "population": 250,
    "centre": {
      "type": "Point",
      "coordinates": [
        0.1036,
        49.1501
      ]
    }
  },
  {
    "nom": "Saint-Pair",
    "code": "14640",
    "population": 245,
    "centre": {
      "type": "Point",
      "coordinates": [
        -0.187,
        49.1648
      ]
    }
  },
  {
    "nom": "Saint-Paul-du-Vernay",
    "code": "14643",
    "population": 831,
    "centre": {
      "type": "Point",
      "coordinates": [
        -0.7532,
        49.1988
      ]
    }
  },
  {
    "nom": "Saint-Philbert-des-Champs",
    "code": "14644",
    "population": 639,
    "centre": {
      "type": "Point",
      "coordinates": [
        0.2702,
        49.2119
      ]
    }
  },
  {
    "nom": "Saint-Pierre-Azif",
    "code": "14645",
    "population": 163,
    "centre": {
      "type": "Point",
      "coordinates": [
        0.0377,
        49.2936
      ]
    }
  },
  {
    "nom": "Saint-Pierre-Canivet",
    "code": "14646",
    "population": 462,
    "centre": {
      "type": "Point",
      "coordinates": [
        -0.2234,
        48.9213
      ]
    }
  },
  {
    "nom": "Saint-Pierre-des-Ifs",
    "code": "14648",
    "population": 453,
    "centre": {
      "type": "Point",
      "coordinates": [
        0.168,
        49.1144
      ]
    }
  },
  {
    "nom": "Saint-Pierre-du-Bû",
    "code": "14649",
    "population": 436,
    "centre": {
      "type": "Point",
      "coordinates": [
        -0.2064,
        48.8643
      ]
    }
  },
  {
    "nom": "Saint-Pierre-du-Fresne",
    "code": "14650",
    "population": 183,
    "centre": {
      "type": "Point",
      "coordinates": [
        -0.7662,
        49.0346
      ]
    }
  },
  {
    "nom": "Saint-Pierre-du-Jonquet",
    "code": "14651",
    "population": 293,
    "centre": {
      "type": "Point",
      "coordinates": [
        -0.1399,
        49.1625
      ]
    }
  },
  {
    "nom": "Saint-Pierre-du-Mont",
    "code": "14652",
    "population": 72,
    "centre": {
      "type": "Point",
      "coordinates": [
        -0.9768,
        49.3791
      ]
    }
  },
  {
    "nom": "Saint-Pierre-en-Auge",
    "code": "14654",
    "population": 7100,
    "centre": {
      "type": "Point",
      "coordinates": [
        0.0252,
        48.9873
      ]
    }
  },
  {
    "nom": "Saint-Rémy",
    "code": "14656",
    "population": 996,
    "centre": {
      "type": "Point",
      "coordinates": [
        -0.4889,
        48.9413
      ]
    }
  },
  {
    "nom": "Saint-Samson",
    "code": "14657",
    "population": 307,
    "centre": {
      "type": "Point",
      "coordinates": [
        -0.1518,
        49.191
      ]
    }
  },
  {
    "nom": "Noues de Sienne",
    "code": "14658",
    "population": 4207,
    "centre": {
      "type": "Point",
      "coordinates": [
        -1.028,
        48.8297
      ]
    }
  },
  {
    "nom": "Saint-Sylvain",
    "code": "14659",
    "population": 1474,
    "centre": {
      "type": "Point",
      "coordinates": [
        -0.2141,
        49.0531
      ]
    }
  },
  {
    "nom": "Saint-Vaast-en-Auge",
    "code": "14660",
    "population": 125,
    "centre": {
      "type": "Point",
      "coordinates": [
        0.0043,
        49.291
      ]
    }
  },
  {
    "nom": "Saint-Vaast-sur-Seulles",
    "code": "14661",
    "population": 161,
    "centre": {
      "type": "Point",
      "coordinates": [
        -0.6314,
        49.1377
      ]
    }
  },
  {
    "nom": "Saint-Vigor-le-Grand",
    "code": "14663",
    "population": 2443,
    "centre": {
      "type": "Point",
      "coordinates": [
        -0.6753,
        49.291
      ]
    }
  },
  {
    "nom": "Sallen",
    "code": "14664",
    "population": 322,
    "centre": {
      "type": "Point",
      "coordinates": [
        -0.8438,
        49.1171
      ]
    }
  },
  {
    "nom": "Sallenelles",
    "code": "14665",
    "population": 287,
    "centre": {
      "type": "Point",
      "coordinates": [
        -0.2342,
        49.2617
      ]
    }
  },
  {
    "nom": "Sannerville",
    "code": "14666",
    "population": 1905,
    "centre": {
      "type": "Point",
      "coordinates": [
        -0.2262,
        49.1861
      ]
    }
  },
  {
    "nom": "Saon",
    "code": "14667",
    "population": 226,
    "centre": {
      "type": "Point",
      "coordinates": [
        -0.8658,
        49.2727
      ]
    }
  },
  {
    "nom": "Saonnet",
    "code": "14668",
    "population": 325,
    "centre": {
      "type": "Point",
      "coordinates": [
        -0.8833,
        49.2746
      ]
    }
  },
  {
    "nom": "Sassy",
    "code": "14669",
    "population": 217,
    "centre": {
      "type": "Point",
      "coordinates": [
        -0.1422,
        48.9864
      ]
    }
  },
  {
    "nom": "Val de Drôme",
    "code": "14672",
    "population": 899,
    "centre": {
      "type": "Point",
      "coordinates": [
        -0.8295,
        49.0572
      ]
    }
  },
  {
    "nom": "Soignolles",
    "code": "14674",
    "population": 115,
    "centre": {
      "type": "Point",
      "coordinates": [
        -0.2156,
        49.0313
      ]
    }
  },
  {
    "nom": "Soliers",
    "code": "14675",
    "population": 2260,
    "centre": {
      "type": "Point",
      "coordinates": [
        -0.2898,
        49.1315
      ]
    }
  },
  {
    "nom": "Sommervieu",
    "code": "14676",
    "population": 987,
    "centre": {
      "type": "Point",
      "coordinates": [
        -0.6445,
        49.2938
      ]
    }
  },
  {
    "nom": "Soulangy",
    "code": "14677",
    "population": 249,
    "centre": {
      "type": "Point",
      "coordinates": [
        -0.2166,
        48.94
      ]
    }
  },
  {
    "nom": "Soumont-Saint-Quentin",
    "code": "14678",
    "population": 659,
    "centre": {
      "type": "Point",
      "coordinates": [
        -0.2322,
        48.979
      ]
    }
  },
  {
    "nom": "Subles",
    "code": "14679",
    "population": 690,
    "centre": {
      "type": "Point",
      "coordinates": [
        -0.7477,
        49.2379
      ]
    }
  },
  {
    "nom": "Sully",
    "code": "14680",
    "population": 171,
    "centre": {
      "type": "Point",
      "coordinates": [
        -0.7418,
        49.3015
      ]
    }
  },
  {
    "nom": "Surrain",
    "code": "14681",
    "population": 138,
    "centre": {
      "type": "Point",
      "coordinates": [
        -0.8576,
        49.3268
      ]
    }
  },
  {
    "nom": "Surville",
    "code": "14682",
    "population": 473,
    "centre": {
      "type": "Point",
      "coordinates": [
        0.2252,
        49.3024
      ]
    }
  },
  {
    "nom": "Tessel",
    "code": "14684",
    "population": 243,
    "centre": {
      "type": "Point",
      "coordinates": [
        -0.5684,
        49.1506
      ]
    }
  },
  {
    "nom": "Thaon",
    "code": "14685",
    "population": 1894,
    "centre": {
      "type": "Point",
      "coordinates": [
        -0.4454,
        49.2553
      ]
    }
  },
  {
    "nom": "Le Theil-en-Auge",
    "code": "14687",
    "population": 199,
    "centre": {
      "type": "Point",
      "coordinates": [
        0.2507,
        49.3483
      ]
    }
  },
  {
    "nom": "Thury-Harcourt-le-Hom",
    "code": "14689",
    "population": 3600,
    "centre": {
      "type": "Point",
      "coordinates": [
        -0.5222,
        48.9871
      ]
    }
  },
  {
    "nom": "Tilly-sur-Seulles",
    "code": "14692",
    "population": 1800,
    "centre": {
      "type": "Point",
      "coordinates": [
        -0.6241,
        49.1716
      ]
    }
  },
  {
    "nom": "Le Torquesne",
    "code": "14694",
    "population": 529,
    "centre": {
      "type": "Point",
      "coordinates": [
        0.1705,
        49.218
      ]
    }
  },
  {
    "nom": "Touffréville",
    "code": "14698",
    "population": 392,
    "centre": {
      "type": "Point",
      "coordinates": [
        -0.2255,
        49.2022
      ]
    }
  },
  {
    "nom": "Touques",
    "code": "14699",
    "population": 3913,
    "centre": {
      "type": "Point",
      "coordinates": [
        0.1091,
        49.3564
      ]
    }
  },
  {
    "nom": "Tour-en-Bessin",
    "code": "14700",
    "population": 692,
    "centre": {
      "type": "Point",
      "coordinates": [
        -0.7821,
        49.2937
      ]
    }
  },
  {
    "nom": "Tourgéville",
    "code": "14701",
    "population": 846,
    "centre": {
      "type": "Point",
      "coordinates": [
        0.0817,
        49.3237
      ]
    }
  },
  {
    "nom": "Tournières",
    "code": "14705",
    "population": 148,
    "centre": {
      "type": "Point",
      "coordinates": [
        -0.936,
        49.2307
      ]
    }
  },
  {
    "nom": "Tourville-en-Auge",
    "code": "14706",
    "population": 257,
    "centre": {
      "type": "Point",
      "coordinates": [
        0.1957,
        49.3195
      ]
    }
  },
  {
    "nom": "Tourville-sur-Odon",
    "code": "14707",
    "population": 1153,
    "centre": {
      "type": "Point",
      "coordinates": [
        -0.4986,
        49.1382
      ]
    }
  },
  {
    "nom": "Tracy-Bocage",
    "code": "14708",
    "population": 312,
    "centre": {
      "type": "Point",
      "coordinates": [
        -0.6903,
        49.0733
      ]
    }
  },
  {
    "nom": "Tracy-sur-Mer",
    "code": "14709",
    "population": 341,
    "centre": {
      "type": "Point",
      "coordinates": [
        -0.644,
        49.33
      ]
    }
  },
  {
    "nom": "Tréprel",
    "code": "14710",
    "population": 112,
    "centre": {
      "type": "Point",
      "coordinates": [
        -0.3481,
        48.9004
      ]
    }
  },
  {
    "nom": "Trévières",
    "code": "14711",
    "population": 925,
    "centre": {
      "type": "Point",
      "coordinates": [
        -0.9156,
        49.3002
      ]
    }
  },
  {
    "nom": "Troarn",
    "code": "14712",
    "population": 3439,
    "centre": {
      "type": "Point",
      "coordinates": [
        -0.1844,
        49.1941
      ]
    }
  },
  {
    "nom": "Montillières-sur-Orne",
    "code": "14713",
    "population": 557,
    "centre": {
      "type": "Point",
      "coordinates": [
        -0.4817,
        49.0457
      ]
    }
  },
  {
    "nom": "Le Tronquay",
    "code": "14714",
    "population": 745,
    "centre": {
      "type": "Point",
      "coordinates": [
        -0.8187,
        49.2303
      ]
    }
  },
  {
    "nom": "Trouville-sur-Mer",
    "code": "14715",
    "population": 4619,
    "centre": {
      "type": "Point",
      "coordinates": [
        0.1034,
        49.3726
      ]
    }
  },
  {
    "nom": "Trungy",
    "code": "14716",
    "population": 209,
    "centre": {
      "type": "Point",
      "coordinates": [
        -0.726,
        49.1914
      ]
    }
  },
  {
    "nom": "Urville",
    "code": "14719",
    "population": 779,
    "centre": {
      "type": "Point",
      "coordinates": [
        -0.2967,
        49.0267
      ]
    }
  },
  {
    "nom": "Ussy",
    "code": "14720",
    "population": 869,
    "centre": {
      "type": "Point",
      "coordinates": [
        -0.2905,
        48.9459
      ]
    }
  },
  {
    "nom": "Vacognes-Neuilly",
    "code": "14721",
    "population": 681,
    "centre": {
      "type": "Point",
      "coordinates": [
        -0.5345,
        49.0833
      ]
    }
  },
  {
    "nom": "Valsemé",
    "code": "14723",
    "population": 261,
    "centre": {
      "type": "Point",
      "coordinates": [
        0.0967,
        49.2375
      ]
    }
  },
  {
    "nom": "Varaville",
    "code": "14724",
    "population": 1022,
    "centre": {
      "type": "Point",
      "coordinates": [
        -0.1445,
        49.2631
      ]
    }
  },
  {
    "nom": "Valdallière",
    "code": "14726",
    "population": 5696,
    "centre": {
      "type": "Point",
      "coordinates": [
        -0.7173,
        48.8619
      ]
    }
  },
  {
    "nom": "Vaucelles",
    "code": "14728",
    "population": 599,
    "centre": {
      "type": "Point",
      "coordinates": [
        -0.7388,
        49.2789
      ]
    }
  },
  {
    "nom": "Vauville",
    "code": "14731",
    "population": 201,
    "centre": {
      "type": "Point",
      "coordinates": [
        0.0614,
        49.3089
      ]
    }
  },
  {
    "nom": "Vaux-sur-Aure",
    "code": "14732",
    "population": 286,
    "centre": {
      "type": "Point",
      "coordinates": [
        -0.709,
        49.3095
      ]
    }
  },
  {
    "nom": "Vaux-sur-Seulles",
    "code": "14733",
    "population": 327,
    "centre": {
      "type": "Point",
      "coordinates": [
        -0.6271,
        49.2603
      ]
    }
  },
  {
    "nom": "Vendes",
    "code": "14734",
    "population": 341,
    "centre": {
      "type": "Point",
      "coordinates": [
        -0.6001,
        49.1416
      ]
    }
  },
  {
    "nom": "Vendeuvre",
    "code": "14735",
    "population": 800,
    "centre": {
      "type": "Point",
      "coordinates": [
        -0.08,
        49.007
      ]
    }
  },
  {
    "nom": "Versainville",
    "code": "14737",
    "population": 520,
    "centre": {
      "type": "Point",
      "coordinates": [
        -0.1718,
        48.9192
      ]
    }
  },
  {
    "nom": "Verson",
    "code": "14738",
    "population": 4059,
    "centre": {
      "type": "Point",
      "coordinates": [
        -0.4666,
        49.1625
      ]
    }
  },
  {
    "nom": "Ver-sur-Mer",
    "code": "14739",
    "population": 1581,
    "centre": {
      "type": "Point",
      "coordinates": [
        -0.5265,
        49.333
      ]
    }
  },
  {
    "nom": "La Vespière-Friardel",
    "code": "14740",
    "population": 1179,
    "centre": {
      "type": "Point",
      "coordinates": [
        0.4048,
        49.0054
      ]
    }
  },
  {
    "nom": "Le Vey",
    "code": "14741",
    "population": 139,
    "centre": {
      "type": "Point",
      "coordinates": [
        -0.4598,
        48.9176
      ]
    }
  },
  {
    "nom": "Vicques",
    "code": "14742",
    "population": 67,
    "centre": {
      "type": "Point",
      "coordinates": [
        -0.0756,
        48.9531
      ]
    }
  },
  {
    "nom": "Victot-en-Auge",
    "code": "14743",
    "population": 145,
    "centre": {
      "type": "Point",
      "coordinates": [
        -0.0081,
        49.1777
      ]
    }
  },
  {
    "nom": "Vienne-en-Bessin",
    "code": "14744",
    "population": 265,
    "centre": {
      "type": "Point",
      "coordinates": [
        -0.6279,
        49.2826
      ]
    }
  },
  {
    "nom": "Vierville-sur-Mer",
    "code": "14745",
    "population": 232,
    "centre": {
      "type": "Point",
      "coordinates": [
        -0.901,
        49.3681
      ]
    }
  },
  {
    "nom": "Vieux",
    "code": "14747",
    "population": 727,
    "centre": {
      "type": "Point",
      "coordinates": [
        -0.4423,
        49.1133
      ]
    }
  },
  {
    "nom": "Vieux-Bourg",
    "code": "14748",
    "population": 104,
    "centre": {
      "type": "Point",
      "coordinates": [
        0.2413,
        49.3135
      ]
    }
  },
  {
    "nom": "Vignats",
    "code": "14751",
    "population": 284,
    "centre": {
      "type": "Point",
      "coordinates": [
        -0.0989,
        48.8566
      ]
    }
  },
  {
    "nom": "Villers-Bocage",
    "code": "14752",
    "population": 3088,
    "centre": {
      "type": "Point",
      "coordinates": [
        -0.6491,
        49.0782
      ]
    }
  },
  {
    "nom": "Villers-Canivet",
    "code": "14753",
    "population": 720,
    "centre": {
      "type": "Point",
      "coordinates": [
        -0.2551,
        48.9324
      ]
    }
  },
  {
    "nom": "Villers-sur-Mer",
    "code": "14754",
    "population": 2440,
    "centre": {
      "type": "Point",
      "coordinates": [
        0.0061,
        49.3113
      ]
    }
  },
  {
    "nom": "Villerville",
    "code": "14755",
    "population": 620,
    "centre": {
      "type": "Point",
      "coordinates": [
        0.121,
        49.3902
      ]
    }
  },
  {
    "nom": "La Villette",
    "code": "14756",
    "population": 217,
    "centre": {
      "type": "Point",
      "coordinates": [
        -0.5428,
        48.9089
      ]
    }
  },
  {
    "nom": "Villons-les-Buissons",
    "code": "14758",
    "population": 848,
    "centre": {
      "type": "Point",
      "coordinates": [
        -0.4108,
        49.236
      ]
    }
  },
  {
    "nom": "Villy-lez-Falaise",
    "code": "14759",
    "population": 274,
    "centre": {
      "type": "Point",
      "coordinates": [
        -0.1381,
        48.8993
      ]
    }
  },
  {
    "nom": "Villy-Bocage",
    "code": "14760",
    "population": 728,
    "centre": {
      "type": "Point",
      "coordinates": [
        -0.6408,
        49.1052
      ]
    }
  },
  {
    "nom": "Vimont",
    "code": "14761",
    "population": 887,
    "centre": {
      "type": "Point",
      "coordinates": [
        -0.1954,
        49.1391
      ]
    }
  },
  {
    "nom": "Vire Normandie",
    "code": "14762",
    "population": 17457,
    "centre": {
      "type": "Point",
      "coordinates": [
        -0.87,
        48.8199
      ]
    }
  },
  {
    "nom": "Pont-d'Ouilly",
    "code": "14764",
    "population": 1018,
    "centre": {
      "type": "Point",
      "coordinates": [
        -0.4228,
        48.8748
      ]
    }
  },
  {
    "nom": "Aclou",
    "code": "27001",
    "population": 337,
    "centre": {
      "type": "Point",
      "coordinates": [
        0.6939,
        49.1675
      ]
    }
  },